[
  {
    "iata": "00M",
    "name": "Thigpen",
    "city": "Bay Springs",
    "state": "MS",
    "country": "USA",
    "latitude": 31.95376472,
    "longitude": -89.23450472
  },
  {
    "iata": "00R",
    "name": "Livingston Municipal",
    "city": "Livingston",
    "state": "TX",
    "country": "USA",
    "latitude": 30.68586111,
    "longitude": -95.01792778
  },
  {
    "iata": "00V",
    "name": "Meadow Lake",
    "city": "Colorado Springs",
    "state": "CO",
    "country": "USA",
    "latitude": 38.94574889,
    "longitude": -104.5698933
  },
  {
    "iata": "01G",
    "name": "Perry-Warsaw",
    "city": "Perry",
    "state": "NY",
    "country": "USA",
    "latitude": 42.74134667,
    "longitude": -78.05208056
  },
  {
    "iata": "01J",
    "name": "Hilliard Airpark",
    "city": "Hilliard",
    "state": "FL",
    "country": "USA",
    "latitude": 30.6880125,
    "longitude": -81.90594389
  },
  {
    "iata": "01M",
    "name": "Tishomingo County",
    "city": "Belmont",
    "state": "MS",
    "country": "USA",
    "latitude": 34.49166667,
    "longitude": -88.20111111
  },
  {
    "iata": "02A",
    "name": "Gragg-Wade",
    "city": "Clanton",
    "state": "AL",
    "country": "USA",
    "latitude": 32.85048667,
    "longitude": -86.61145333
  },
  {
    "iata": "02C",
    "name": "Capitol",
    "city": "Brookfield",
    "state": "WI",
    "country": "USA",
    "latitude": 43.08751,
    "longitude": -88.17786917
  },
  {
    "iata": "02G",
    "name": "Columbiana County",
    "city": "East Liverpool",
    "state": "OH",
    "country": "USA",
    "latitude": 40.67331278,
    "longitude": -80.64140639
  },
  {
    "iata": "03D",
    "name": "Memphis Memorial",
    "city": "Memphis",
    "state": "MO",
    "country": "USA",
    "latitude": 40.44725889,
    "longitude": -92.22696056
  },
  {
    "iata": "04M",
    "name": "Calhoun County",
    "city": "Pittsboro",
    "state": "MS",
    "country": "USA",
    "latitude": 33.93011222,
    "longitude": -89.34285194
  },
  {
    "iata": "04Y",
    "name": "Hawley Municipal",
    "city": "Hawley",
    "state": "MN",
    "country": "USA",
    "latitude": 46.88384889,
    "longitude": -96.35089861
  },
  {
    "iata": "05C",
    "name": "Griffith-Merrillville",
    "city": "Griffith",
    "state": "IN",
    "country": "USA",
    "latitude": 41.51961917,
    "longitude": -87.40109333
  },
  {
    "iata": "05F",
    "name": "Gatesville - City/County",
    "city": "Gatesville",
    "state": "TX",
    "country": "USA",
    "latitude": 31.42127556,
    "longitude": -97.79696778
  },
  {
    "iata": "05U",
    "name": "Eureka",
    "city": "Eureka",
    "state": "NV",
    "country": "USA",
    "latitude": 39.60416667,
    "longitude": -116.0050597
  },
  {
    "iata": "06A",
    "name": "Moton  Municipal",
    "city": "Tuskegee",
    "state": "AL",
    "country": "USA",
    "latitude": 32.46047167,
    "longitude": -85.68003611
  },
  {
    "iata": "06C",
    "name": "Schaumburg",
    "city": "Chicago/Schaumburg",
    "state": "IL",
    "country": "USA",
    "latitude": 41.98934083,
    "longitude": -88.10124278
  },
  {
    "iata": "06D",
    "name": "Rolla Municipal",
    "city": "Rolla",
    "state": "ND",
    "country": "USA",
    "latitude": 48.88434111,
    "longitude": -99.62087694
  },
  {
    "iata": "06M",
    "name": "Eupora Municipal",
    "city": "Eupora",
    "state": "MS",
    "country": "USA",
    "latitude": 33.53456583,
    "longitude": -89.31256917
  },
  {
    "iata": "06N",
    "name": "Randall",
    "city": "Middletown",
    "state": "NY",
    "country": "USA",
    "latitude": 41.43156583,
    "longitude": -74.39191722
  },
  {
    "iata": "06U",
    "name": "Jackpot/Hayden",
    "city": "Jackpot",
    "state": "NV",
    "country": "USA",
    "latitude": 41.97602222,
    "longitude": -114.6580911
  },
  {
    "iata": "07C",
    "name": "Dekalb County",
    "city": "Auburn",
    "state": "IN",
    "country": "USA",
    "latitude": 41.30716667,
    "longitude": -85.06433333
  },
  {
    "iata": "07F",
    "name": "Gladewater Municipal",
    "city": "Gladewater",
    "state": "TX",
    "country": "USA",
    "latitude": 32.52883861,
    "longitude": -94.97174556
  },
  {
    "iata": "07G",
    "name": "Fitch H Beach",
    "city": "Charlotte",
    "state": "MI",
    "country": "USA",
    "latitude": 42.57450861,
    "longitude": -84.81143139
  },
  {
    "iata": "07K",
    "name": "Central City Municipal",
    "city": "Central City",
    "state": "NE",
    "country": "USA",
    "latitude": 41.11668056,
    "longitude": -98.05033639
  },
  {
    "iata": "08A",
    "name": "Wetumpka Municipal",
    "city": "Wetumpka",
    "state": "AL",
    "country": "USA",
    "latitude": 32.52943944,
    "longitude": -86.32822139
  },
  {
    "iata": "08D",
    "name": "Stanley Municipal",
    "city": "Stanley",
    "state": "ND",
    "country": "USA",
    "latitude": 48.30079861,
    "longitude": -102.4063514
  },
  {
    "iata": "08K",
    "name": "Harvard State",
    "city": "Harvard",
    "state": "NE",
    "country": "USA",
    "latitude": 40.65138528,
    "longitude": -98.07978667
  },
  {
    "iata": "08M",
    "name": "Carthage-Leake County",
    "city": "Carthage",
    "state": "MS",
    "country": "USA",
    "latitude": 32.76124611,
    "longitude": -89.53007139
  },
  {
    "iata": "09A",
    "name": "Butler-Choctaw County",
    "city": "Butler",
    "state": "AL",
    "country": "USA",
    "latitude": 32.11931306,
    "longitude": -88.1274625
  },
  {
    "iata": "09J",
    "name": "Jekyll Island",
    "city": "Jekyll Island",
    "state": "GA",
    "country": "USA",
    "latitude": 31.07447222,
    "longitude": -81.42777778
  },
  {
    "iata": "09K",
    "name": "Sargent Municipal",
    "city": "Sargent",
    "state": "NE",
    "country": "USA",
    "latitude": 41.63695083,
    "longitude": -99.34038139
  },
  {
    "iata": "09M",
    "name": "Charleston Municipal",
    "city": "Charleston",
    "state": "MS",
    "country": "USA",
    "latitude": 33.99150222,
    "longitude": -90.078145
  },
  {
    "iata": "09W",
    "name": "South Capitol Street",
    "city": "Washington",
    "state": "DC",
    "country": "USA",
    "latitude": 38.86872333,
    "longitude": -77.00747583
  },
  {
    "iata": "0A3",
    "name": "Smithville Municipal",
    "city": "Smithville",
    "state": "TN",
    "country": "USA",
    "latitude": 35.98531194,
    "longitude": -85.80931806
  },
  {
    "iata": "0A8",
    "name": "Bibb County",
    "city": "Centreville",
    "state": "AL",
    "country": "USA",
    "latitude": 32.93679056,
    "longitude": -87.08888306
  },
  {
    "iata": "0A9",
    "name": "Elizabethton Municipal",
    "city": "Elizabethton",
    "state": "TN",
    "country": "USA",
    "latitude": 36.37094306,
    "longitude": -82.17374111
  },
  {
    "iata": "0AK",
    "name": "Pilot Station",
    "city": "Pilot Station",
    "state": "AK",
    "country": "USA",
    "latitude": 61.93396417,
    "longitude": -162.8929358
  },
  {
    "iata": 1,
    "name": "Col. Dyke",
    "city": "Bethel",
    "state": "ME",
    "country": "USA",
    "latitude": 44.42506444,
    "longitude": -70.80784778
  },
  {
    "iata": "0B4",
    "name": "Hartington Municipal",
    "city": "Hartington",
    "state": "NE",
    "country": "USA",
    "latitude": 42.60355556,
    "longitude": -97.25263889
  },
  {
    "iata": "0B5",
    "name": "Turners Falls",
    "city": "Montague",
    "state": "MA",
    "country": "USA",
    "latitude": 42.59136361,
    "longitude": -72.52275472
  },
  {
    "iata": "0B7",
    "name": "Warren-Sugar Bush",
    "city": "Warren",
    "state": "VT",
    "country": "USA",
    "latitude": 44.11672722,
    "longitude": -72.82705806
  },
  {
    "iata": "0B8",
    "name": "Elizabeth",
    "city": "Fishers Island",
    "state": "NY",
    "country": "USA",
    "latitude": 41.25130806,
    "longitude": -72.03161139
  },
  {
    "iata": "0C0",
    "name": "Dacy",
    "city": "Chicago/Harvard",
    "state": "IL",
    "country": "USA",
    "latitude": 42.40418556,
    "longitude": -88.63343222
  },
  {
    "iata": "0C4",
    "name": "Pender Municipal",
    "city": "Pender",
    "state": "NE",
    "country": "USA",
    "latitude": 42.11388722,
    "longitude": -96.72892556
  },
  {
    "iata": "0D1",
    "name": "South Haven Municipal",
    "city": "South Haven",
    "state": "MI",
    "country": "USA",
    "latitude": 42.35083333,
    "longitude": -86.25613889
  },
  {
    "iata": "0D8",
    "name": "Gettysburg Municipal",
    "city": "Gettysburg",
    "state": "SD",
    "country": "USA",
    "latitude": 44.98730556,
    "longitude": -99.9535
  },
  {
    "iata": 0,
    "name": "Moriarty",
    "city": "Moriarty",
    "state": "NM",
    "country": "USA",
    "latitude": 34.98560639,
    "longitude": -106.0094661
  },
  {
    "iata": 0,
    "name": "Crownpoint",
    "city": "Crownpoint",
    "state": "NM",
    "country": "USA",
    "latitude": 35.71765889,
    "longitude": -108.2015961
  },
  {
    "iata": "0F2",
    "name": "Bowie Municipal",
    "city": "Bowie",
    "state": "TX",
    "country": "USA",
    "latitude": 33.60166667,
    "longitude": -97.77556
  },
  {
    "iata": "0F4",
    "name": "Loup City Municipal",
    "city": "Loup City",
    "state": "NE",
    "country": "USA",
    "latitude": 41.29028694,
    "longitude": -98.99064278
  },
  {
    "iata": "0F7",
    "name": "Fountainhead Lodge Airpark",
    "city": "Eufaula",
    "state": "OK",
    "country": "USA",
    "latitude": 35.38898833,
    "longitude": -95.60165111
  },
  {
    "iata": "0F8",
    "name": "William R Pogue Municipal",
    "city": "Sand Springs",
    "state": "OK",
    "country": "USA",
    "latitude": 36.17528,
    "longitude": -96.15181028
  },
  {
    "iata": "0F9",
    "name": "Tishomingo Airpark",
    "city": "Tishomingo",
    "state": "OK",
    "country": "USA",
    "latitude": 34.19592833,
    "longitude": -96.67555694
  },
  {
    "iata": "0G0",
    "name": "North Buffalo Suburban",
    "city": "Lockport",
    "state": "NY",
    "country": "USA",
    "latitude": 43.10318389,
    "longitude": -78.70334583
  },
  {
    "iata": "0G3",
    "name": "Tecumseh Municipal",
    "city": "Tecumseh",
    "state": "NE",
    "country": "USA",
    "latitude": 40.39944417,
    "longitude": -96.17139694
  },
  {
    "iata": "0G6",
    "name": "Williams County",
    "city": "Bryan",
    "state": "OH",
    "country": "USA",
    "latitude": 41.46736111,
    "longitude": -84.50655556
  },
  {
    "iata": "0G7",
    "name": "Finger Lakes Regional",
    "city": "Seneca Falls",
    "state": "NY",
    "country": "USA",
    "latitude": 42.88062278,
    "longitude": -76.78162028
  },
  {
    "iata": "0H1",
    "name": "Trego Wakeeney",
    "city": "Wakeeney",
    "state": "KS",
    "country": "USA",
    "latitude": 39.0044525,
    "longitude": -99.89289917
  },
  {
    "iata": "0I8",
    "name": "Cynthiana-Harrison County",
    "city": "Cynthiana",
    "state": "KY",
    "country": "USA",
    "latitude": 38.36674167,
    "longitude": -84.28410056
  },
  {
    "iata": "0J0",
    "name": "Abbeville Municipal",
    "city": "Abbeville",
    "state": "AL",
    "country": "USA",
    "latitude": 31.60016778,
    "longitude": -85.23882222
  },
  {
    "iata": "0J4",
    "name": "Florala Municipal",
    "city": "Florala",
    "state": "AL",
    "country": "USA",
    "latitude": 31.04247361,
    "longitude": -86.31156111
  },
  {
    "iata": "0J6",
    "name": "Headland Municipal",
    "city": "Headland",
    "state": "AL",
    "country": "USA",
    "latitude": 31.364895,
    "longitude": -85.30965556
  },
  {
    "iata": "0K7",
    "name": "Humboldt Municipal",
    "city": "Humboldt",
    "state": "IA",
    "country": "USA",
    "latitude": 42.7360825,
    "longitude": -94.24524167
  },
  {
    "iata": "0L5",
    "name": "Goldfield",
    "city": "Goldfield",
    "state": "NV",
    "country": "USA",
    "latitude": 37.71798833,
    "longitude": -117.2384119
  },
  {
    "iata": "0L7",
    "name": "Jean",
    "city": "Jean",
    "state": "NV",
    "country": "USA",
    "latitude": 35.76827222,
    "longitude": -115.3296378
  },
  {
    "iata": "0L9",
    "name": "Echo Bay",
    "city": "Overton",
    "state": "NV",
    "country": "USA",
    "latitude": 36.31108972,
    "longitude": -114.4638672
  },
  {
    "iata": "0M0",
    "name": "Dumas Municipal",
    "city": "Dumas",
    "state": "AR",
    "country": "USA",
    "latitude": 33.8845475,
    "longitude": -91.53429111
  },
  {
    "iata": "0M1",
    "name": "Scott",
    "city": "Parsons",
    "state": "TN",
    "country": "USA",
    "latitude": 35.63778,
    "longitude": -88.127995
  },
  {
    "iata": "0M4",
    "name": "Benton County",
    "city": "Camden",
    "state": "TN",
    "country": "USA",
    "latitude": 36.01122694,
    "longitude": -88.12328833
  },
  {
    "iata": "0M5",
    "name": "Humphreys County",
    "city": "Waverly",
    "state": "TN",
    "country": "USA",
    "latitude": 36.11659972,
    "longitude": -87.73815889
  },
  {
    "iata": "0M6",
    "name": "Panola County",
    "city": "Batesville",
    "state": "MS",
    "country": "USA",
    "latitude": 34.36677444,
    "longitude": -89.90008917
  },
  {
    "iata": "0M8",
    "name": "Byerley",
    "city": "Lake Providence",
    "state": "LA",
    "country": "USA",
    "latitude": 32.82587917,
    "longitude": -91.187665
  },
  {
    "iata": 3,
    "name": "Calaveras Co-Maury Rasmussen",
    "city": "San Andreas",
    "state": "CA",
    "country": "USA",
    "latitude": 38.14611639,
    "longitude": -120.6481733
  },
  {
    "iata": 4,
    "name": "Corning Municipal",
    "city": "Corning",
    "state": "CA",
    "country": "USA",
    "latitude": 39.94376806,
    "longitude": -122.1713781
  },
  {
    "iata": 5,
    "name": "University",
    "city": "Davis",
    "state": "CA",
    "country": "USA",
    "latitude": 38.53146222,
    "longitude": -121.7864906
  },
  {
    "iata": "0Q5",
    "name": "Shelter Cove",
    "city": "Shelter Cove",
    "state": "CA",
    "country": "USA",
    "latitude": 40.02764333,
    "longitude": -124.0733639
  },
  {
    "iata": "0Q6",
    "name": "Shingletown",
    "city": "Shingletown",
    "state": "CA",
    "country": "USA",
    "latitude": 40.52210111,
    "longitude": -121.8177683
  },
  {
    "iata": "0R0",
    "name": "Columbia-Marion County",
    "city": "Columbia",
    "state": "MS",
    "country": "USA",
    "latitude": 31.29700806,
    "longitude": -89.81282944
  },
  {
    "iata": "0R1",
    "name": "Atmore Municipal",
    "city": "Atmore",
    "state": "AL",
    "country": "USA",
    "latitude": 31.01621528,
    "longitude": -87.44675972
  },
  {
    "iata": "0R3",
    "name": "Abbeville Chris Crusta Memorial",
    "city": "Abbeville",
    "state": "LA",
    "country": "USA",
    "latitude": 29.97576083,
    "longitude": -92.08415167
  },
  {
    "iata": "0R4",
    "name": "Concordia Parish",
    "city": "Vidalia",
    "state": "LA",
    "country": "USA",
    "latitude": 31.56683278,
    "longitude": -91.50011889
  },
  {
    "iata": "0R5",
    "name": "David G Joyce",
    "city": "Winnfield",
    "state": "LA",
    "country": "USA",
    "latitude": 31.96366222,
    "longitude": -92.66026056
  },
  {
    "iata": "0R7",
    "name": "Red River",
    "city": "Coushatta",
    "state": "LA",
    "country": "USA",
    "latitude": 31.99071694,
    "longitude": -93.30739306
  },
  {
    "iata": "0S7",
    "name": "Dorothy Scott",
    "city": "Oroville",
    "state": "WA",
    "country": "USA",
    "latitude": 48.958965,
    "longitude": -119.4119622
  },
  {
    "iata": "0S9",
    "name": "Jefferson County International",
    "city": "Port Townsend",
    "state": "WA",
    "country": "USA",
    "latitude": 48.04981361,
    "longitude": -122.8012792
  },
  {
    "iata": "0V2",
    "name": "Harriet Alexander",
    "city": "Salida",
    "state": "CO",
    "country": "USA",
    "latitude": 38.53916389,
    "longitude": -106.0458483
  },
  {
    "iata": "0V3",
    "name": "Pioneer Village",
    "city": "Minden",
    "state": "NE",
    "country": "USA",
    "latitude": 40.5149125,
    "longitude": -98.94565083
  },
  {
    "iata": "0V4",
    "name": "Brookneal/Campbell County",
    "city": "Brookneal",
    "state": "VA",
    "country": "USA",
    "latitude": 37.14172222,
    "longitude": -79.01638889
  },
  {
    "iata": "0V6",
    "name": "Mission Sioux",
    "city": "Mission",
    "state": "SD",
    "country": "USA",
    "latitude": 43.30694778,
    "longitude": -100.6281936
  },
  {
    "iata": "0V7",
    "name": "Kayenta",
    "city": "Kayenta",
    "state": "AZ",
    "country": "USA",
    "latitude": 36.70972139,
    "longitude": -110.2367978
  },
  {
    "iata": "10C",
    "name": "Galt",
    "city": "Chicago/Greenwood/Wonderlake",
    "state": "IL",
    "country": "USA",
    "latitude": 42.40266472,
    "longitude": -88.37588917
  },
  {
    "iata": "10D",
    "name": "Winsted Municipal",
    "city": "Winsted",
    "state": "MN",
    "country": "USA",
    "latitude": 44.94996278,
    "longitude": -94.0669175
  },
  {
    "iata": "10G",
    "name": "Holmes County",
    "city": "Millersburg",
    "state": "OH",
    "country": "USA",
    "latitude": 40.53716667,
    "longitude": -81.95436111
  },
  {
    "iata": "10N",
    "name": "Wallkill",
    "city": "Wallkill",
    "state": "NY",
    "country": "USA",
    "latitude": 41.62787111,
    "longitude": -74.13375583
  },
  {
    "iata": "10U",
    "name": "Owyhee",
    "city": "Owyhee",
    "state": "NV",
    "country": "USA",
    "latitude": 41.95323306,
    "longitude": -116.1876014
  },
  {
    "iata": "11A",
    "name": "Clayton Municipal",
    "city": "Clayton",
    "state": "AL",
    "country": "USA",
    "latitude": 31.88329917,
    "longitude": -85.48491361
  },
  {
    "iata": "11D",
    "name": "Clarion Cty",
    "city": "Clarion",
    "state": "PA",
    "country": "USA",
    "latitude": 41.22581222,
    "longitude": -79.44098972
  },
  {
    "iata": "11IS",
    "name": "Schaumburg Heliport",
    "city": "Chicago/Schaumburg",
    "state": "IL",
    "country": "USA",
    "latitude": 42.04808278,
    "longitude": -88.05257194
  },
  {
    "iata": "11J",
    "name": "Early County",
    "city": "Blakely",
    "state": "GA",
    "country": "USA",
    "latitude": 31.39698611,
    "longitude": -84.89525694
  },
  {
    "iata": "11R",
    "name": "Brenham Municipal",
    "city": "Brenham",
    "state": "TX",
    "country": "USA",
    "latitude": 30.219,
    "longitude": -96.37427778
  },
  {
    "iata": "12C",
    "name": "Rochelle Municipal",
    "city": "Rochelle",
    "state": "IL",
    "country": "USA",
    "latitude": 41.89300139,
    "longitude": -89.07829
  },
  {
    "iata": "12D",
    "name": "Tower Municipal",
    "city": "Tower",
    "state": "MN",
    "country": "USA",
    "latitude": 47.81833333,
    "longitude": -92.29166667
  },
  {
    "iata": "12J",
    "name": "Brewton Municipal",
    "city": "Brewton",
    "state": "AL",
    "country": "USA",
    "latitude": 31.05126306,
    "longitude": -87.06796833
  },
  {
    "iata": "12K",
    "name": "Superior Municipal",
    "city": "Superior",
    "state": "NE",
    "country": "USA",
    "latitude": 40.04636111,
    "longitude": -98.06011111
  },
  {
    "iata": "12Y",
    "name": "Le Sueur Municipal",
    "city": "Le Sueur",
    "state": "MN",
    "country": "USA",
    "latitude": 44.43746472,
    "longitude": -93.91274083
  },
  {
    "iata": "13C",
    "name": "Lakeview",
    "city": "Lakeview",
    "state": "MI",
    "country": "USA",
    "latitude": 43.45213722,
    "longitude": -85.26480333
  },
  {
    "iata": "13K",
    "name": "Eureka Municipal",
    "city": "Eureka",
    "state": "KS",
    "country": "USA",
    "latitude": 37.8515825,
    "longitude": -96.29169806
  },
  {
    "iata": "13N",
    "name": "Trinca",
    "city": "Andover",
    "state": "NJ",
    "country": "USA",
    "latitude": 40.96676444,
    "longitude": -74.78016556
  },
  {
    "iata": "14J",
    "name": "Carl Folsom",
    "city": "Elba",
    "state": "AL",
    "country": "USA",
    "latitude": 31.40988861,
    "longitude": -86.08883583
  },
  {
    "iata": "14M",
    "name": "Hollandale Municipal",
    "city": "Hollandale",
    "state": "MS",
    "country": "USA",
    "latitude": 33.18262167,
    "longitude": -90.83065444
  },
  {
    "iata": "14Y",
    "name": "Todd Field",
    "city": "Long Prairie",
    "state": "MN",
    "country": "USA",
    "latitude": 45.89857556,
    "longitude": -94.87391
  },
  {
    "iata": "15F",
    "name": "Haskell Municipal",
    "city": "Haskell",
    "state": "TX",
    "country": "USA",
    "latitude": 33.19155556,
    "longitude": -99.71793056
  },
  {
    "iata": "15J",
    "name": "Cook County",
    "city": "Adel",
    "state": "GA",
    "country": "USA",
    "latitude": 31.13780556,
    "longitude": -83.45308333
  },
  {
    "iata": "15M",
    "name": "Luka",
    "city": "Luka",
    "state": "MS",
    "country": "USA",
    "latitude": 34.7723125,
    "longitude": -88.16587444
  },
  {
    "iata": "15Z",
    "name": "McCarthy 2",
    "city": "McCarthy",
    "state": "AK",
    "country": "USA",
    "latitude": 61.43706083,
    "longitude": -142.9037372
  },
  {
    "iata": "16A",
    "name": "Nunapitchuk",
    "city": "Nunapitchuk",
    "state": "AK",
    "country": "USA",
    "latitude": 60.90582833,
    "longitude": -162.4391158
  },
  {
    "iata": "16G",
    "name": "Seneca County",
    "city": "Tiffin",
    "state": "OH",
    "country": "USA",
    "latitude": 41.09405556,
    "longitude": -83.2125
  },
  {
    "iata": "16J",
    "name": "Dawson Municipal",
    "city": "Dawson",
    "state": "GA",
    "country": "USA",
    "latitude": 31.74328472,
    "longitude": -84.419285
  },
  {
    "iata": "16S",
    "name": "Myrtle Creek Municipal",
    "city": "Myrtle Creek",
    "state": "OR",
    "country": "USA",
    "latitude": 42.99845056,
    "longitude": -123.3095092
  },
  {
    "iata": "17G",
    "name": "Port Bucyrus-Crawford County",
    "city": "Bucyrus",
    "state": "OH",
    "country": "USA",
    "latitude": 40.78141667,
    "longitude": -82.97469444
  },
  {
    "iata": "17J",
    "name": "Donalsonville Municipal",
    "city": "Donalsonville",
    "state": "GA",
    "country": "USA",
    "latitude": 31.00694444,
    "longitude": -84.87761111
  },
  {
    "iata": "17K",
    "name": "Boise City",
    "city": "Boise City",
    "state": "OK",
    "country": "USA",
    "latitude": 36.77430028,
    "longitude": -102.5104364
  },
  {
    "iata": "17M",
    "name": "Magee Municipal",
    "city": "Magee",
    "state": "MS",
    "country": "USA",
    "latitude": 31.86127139,
    "longitude": -89.80285361
  },
  {
    "iata": "17N",
    "name": "Cross Keys",
    "city": "Cross Keys",
    "state": "NJ",
    "country": "USA",
    "latitude": 39.70547583,
    "longitude": -75.03300306
  },
  {
    "iata": "17Z",
    "name": "Manokotak",
    "city": "Manokotak",
    "state": "AK",
    "country": "USA",
    "latitude": 58.98896583,
    "longitude": -159.0499739
  },
  {
    "iata": "18A",
    "name": "Franklin County",
    "city": "Canon",
    "state": "GA",
    "country": "USA",
    "latitude": 34.34010472,
    "longitude": -83.13348333
  },
  {
    "iata": "18I",
    "name": "McCreary County",
    "city": "Pine Knot",
    "state": "KY",
    "country": "USA",
    "latitude": 36.69591306,
    "longitude": -84.39160389
  },
  {
    "iata": "19A",
    "name": "Jackson County",
    "city": "Jefferson",
    "state": "GA",
    "country": "USA",
    "latitude": 34.17402472,
    "longitude": -83.56066528
  },
  {
    "iata": "19M",
    "name": "C A Moore",
    "city": "Lexington",
    "state": "MS",
    "country": "USA",
    "latitude": 33.12546111,
    "longitude": -90.02555694
  },
  {
    "iata": "19N",
    "name": "Camden",
    "city": "Berlin",
    "state": "NJ",
    "country": "USA",
    "latitude": 39.77842056,
    "longitude": -74.94780389
  },
  {
    "iata": "19P",
    "name": "Port Protection SPB",
    "city": "Port Protection",
    "state": "AK",
    "country": "USA",
    "latitude": 56.32880417,
    "longitude": -133.6100844
  },
  {
    "iata": "1A3",
    "name": "Martin Campbell",
    "city": "Copperhill",
    "state": "TN",
    "country": "USA",
    "latitude": 35.01619111,
    "longitude": -84.34631083
  },
  {
    "iata": "1A5",
    "name": "Macon County",
    "city": "Franklin",
    "state": "NC",
    "country": "USA",
    "latitude": 35.222595,
    "longitude": -83.41904389
  },
  {
    "iata": "1A6",
    "name": "Middlesboro-Bell County",
    "city": "Middlesboro",
    "state": "KY",
    "country": "USA",
    "latitude": 36.6106375,
    "longitude": -83.73741611
  },
  {
    "iata": "1A7",
    "name": "Jackson County",
    "city": "Gainesboro",
    "state": "TN",
    "country": "USA",
    "latitude": 36.39728139,
    "longitude": -85.64164278
  },
  {
    "iata": "1A9",
    "name": "Autauga County",
    "city": "Prattville",
    "state": "AL",
    "country": "USA",
    "latitude": 32.438775,
    "longitude": -86.51044778
  },
  {
    "iata": "1B0",
    "name": "Dexter Regional",
    "city": "Dexter",
    "state": "ME",
    "country": "USA",
    "latitude": 45.00839444,
    "longitude": -69.23976722
  },
  {
    "iata": "1B1",
    "name": "Columbia Cty",
    "city": "Hudson",
    "state": "NY",
    "country": "USA",
    "latitude": 42.29130028,
    "longitude": -73.71031944
  },
  {
    "iata": "1B3",
    "name": "Fair Haven",
    "city": "Fair Haven",
    "state": "VT",
    "country": "USA",
    "latitude": 43.61534389,
    "longitude": -73.27455556
  },
  {
    "iata": "1B9",
    "name": "Mansfield Municipal",
    "city": "Mansfield",
    "state": "MA",
    "country": "USA",
    "latitude": 42.00013306,
    "longitude": -71.19677139
  },
  {
    "iata": "1C5",
    "name": "Clow",
    "city": "Chicago/Plainfield",
    "state": "IL",
    "country": "USA",
    "latitude": 41.69597444,
    "longitude": -88.12923056
  },
  {
    "iata": "1D1",
    "name": "Milbank Municipal",
    "city": "Milbank",
    "state": "SD",
    "country": "USA",
    "latitude": 45.23053806,
    "longitude": -96.56596556
  },
  {
    "iata": "1D2",
    "name": "Canton -Plymouth -  Mettetal",
    "city": "Plymouth",
    "state": "MI",
    "country": "USA",
    "latitude": 42.35003667,
    "longitude": -83.45826833
  },
  {
    "iata": "1D3",
    "name": "Platte Municipal",
    "city": "Platte",
    "state": "SD",
    "country": "USA",
    "latitude": 43.40332833,
    "longitude": -98.82952972
  },
  {
    "iata": "1D6",
    "name": "Hector Municipal",
    "city": "Hector",
    "state": "MN",
    "country": "USA",
    "latitude": 44.73107278,
    "longitude": -94.71471333
  },
  {
    "iata": "1D7",
    "name": "Webster Municipal",
    "city": "Webster",
    "state": "SD",
    "country": "USA",
    "latitude": 45.29329111,
    "longitude": -97.51369889
  },
  {
    "iata": "1D8",
    "name": "Redfield Municipal",
    "city": "Redfield",
    "state": "SD",
    "country": "USA",
    "latitude": 44.86247611,
    "longitude": -98.52953972
  },
  {
    "iata": "1F0",
    "name": "Downtown Ardmore",
    "city": "Ardmore",
    "state": "OK",
    "country": "USA",
    "latitude": 34.14698917,
    "longitude": -97.12265194
  },
  {
    "iata": "1F1",
    "name": "Lake Murray State Park",
    "city": "Overbrook",
    "state": "OK",
    "country": "USA",
    "latitude": 34.07509694,
    "longitude": -97.10667917
  },
  {
    "iata": "1F4",
    "name": "Madill Municipal",
    "city": "Madill",
    "state": "OK",
    "country": "USA",
    "latitude": 34.14040194,
    "longitude": -96.81203222
  },
  {
    "iata": "1F9",
    "name": "Bridgeport Municipal",
    "city": "Bridgeport",
    "state": "TX",
    "country": "USA",
    "latitude": 33.17533333,
    "longitude": -97.82838889
  },
  {
    "iata": "1G0",
    "name": "Wood County",
    "city": "Bowling Green",
    "state": "OH",
    "country": "USA",
    "latitude": 41.391,
    "longitude": -83.63013889
  },
  {
    "iata": "1G3",
    "name": "Kent State University",
    "city": "Kent",
    "state": "OH",
    "country": "USA",
    "latitude": 41.15186167,
    "longitude": -81.41658306
  },
  {
    "iata": "1G4",
    "name": "Grand Canyon West",
    "city": "Peach Springs",
    "state": "AZ",
    "country": "USA",
    "latitude": 35.99221,
    "longitude": -113.8166164
  },
  {
    "iata": "1G5",
    "name": "Freedom",
    "city": "Medina",
    "state": "OH",
    "country": "USA",
    "latitude": 41.13144444,
    "longitude": -81.76491667
  },
  {
    "iata": "1G6",
    "name": "Michael",
    "city": "Cicero",
    "state": "NY",
    "country": "USA",
    "latitude": 43.18166667,
    "longitude": -76.12777778
  },
  {
    "iata": "1H0",
    "name": "Creve Coeur",
    "city": "St Louis",
    "state": "MO",
    "country": "USA",
    "latitude": 38.72752,
    "longitude": -90.50830417
  },
  {
    "iata": "1H2",
    "name": "Effingham County Memorial",
    "city": "Effingham",
    "state": "IL",
    "country": "USA",
    "latitude": 39.07045083,
    "longitude": -88.53351972
  },
  {
    "iata": "1H3",
    "name": "Linn State Tech. College",
    "city": "Linn",
    "state": "MO",
    "country": "USA",
    "latitude": 38.47149444,
    "longitude": -91.81531667
  },
  {
    "iata": "1H8",
    "name": "Casey Municipal",
    "city": "Casey",
    "state": "IL",
    "country": "USA",
    "latitude": 39.30250917,
    "longitude": -88.00406194
  },
  {
    "iata": "1I5",
    "name": "Freehold",
    "city": "Freehold",
    "state": "NY",
    "country": "USA",
    "latitude": 42.36425,
    "longitude": -74.06596806
  },
  {
    "iata": "1I9",
    "name": "Delphi Municipal",
    "city": "Delphi",
    "state": "IN",
    "country": "USA",
    "latitude": 40.54281417,
    "longitude": -86.68167194
  },
  {
    "iata": "1J0",
    "name": "Tri-County",
    "city": "Bonifay",
    "state": "FL",
    "country": "USA",
    "latitude": 30.84577778,
    "longitude": -85.60138889
  },
  {
    "iata": "1K2",
    "name": "Lindsay Municipal",
    "city": "Lindsay",
    "state": "OK",
    "country": "USA",
    "latitude": 34.85007333,
    "longitude": -97.58642028
  },
  {
    "iata": "1K4",
    "name": "David J. Perry",
    "city": "Goldsby",
    "state": "OK",
    "country": "USA",
    "latitude": 35.1550675,
    "longitude": -97.47039389
  },
  {
    "iata": "1K5",
    "name": "Waynoka Municipal",
    "city": "Waynoka",
    "state": "OK",
    "country": "USA",
    "latitude": 36.56670028,
    "longitude": -98.85231333
  },
  {
    "iata": "1K9",
    "name": "Satanta Municipal",
    "city": "Satanta",
    "state": "KS",
    "country": "USA",
    "latitude": 37.45419111,
    "longitude": -100.9921119
  },
  {
    "iata": "1L0",
    "name": "St. John the Baptist Parish",
    "city": "Reserve",
    "state": "LA",
    "country": "USA",
    "latitude": 30.08720833,
    "longitude": -90.58266528
  },
  {
    "iata": "1L1",
    "name": "Lincoln Co",
    "city": "Panaca",
    "state": "NV",
    "country": "USA",
    "latitude": 37.78746444,
    "longitude": -114.4216567
  },
  {
    "iata": "1L7",
    "name": "Escalante Municipal",
    "city": "Escalante",
    "state": "UT",
    "country": "USA",
    "latitude": 37.74532639,
    "longitude": -111.5701653
  },
  {
    "iata": "1L9",
    "name": "Parowan",
    "city": "Parowan",
    "state": "UT",
    "country": "USA",
    "latitude": 37.85969694,
    "longitude": -112.816055
  },
  {
    "iata": "1M1",
    "name": "North Little Rock Municipal",
    "city": "No Lit Rock",
    "state": "AR",
    "country": "USA",
    "latitude": 34.83398056,
    "longitude": -92.25792778
  },
  {
    "iata": "1M2",
    "name": "Belzoni Municipal",
    "city": "Belzoni",
    "state": "MS",
    "country": "USA",
    "latitude": 33.14518056,
    "longitude": -90.51528472
  },
  {
    "iata": "1M4",
    "name": "Posey",
    "city": "Haleyville",
    "state": "AL",
    "country": "USA",
    "latitude": 34.28034806,
    "longitude": -87.60044139
  },
  {
    "iata": "1M5",
    "name": "Portland Municipal",
    "city": "Portland",
    "state": "TN",
    "country": "USA",
    "latitude": 36.59287528,
    "longitude": -86.47691028
  },
  {
    "iata": "1M7",
    "name": "Fulton",
    "city": "Fulton",
    "state": "KY",
    "country": "USA",
    "latitude": 36.52589417,
    "longitude": -88.91561611
  },
  {
    "iata": "1MO",
    "name": "Mountain Grove Memorial",
    "city": "Mountain Grove",
    "state": "MO",
    "country": "USA",
    "latitude": 37.12071889,
    "longitude": -92.311245
  },
  {
    "iata": "1N2",
    "name": "Spadaro",
    "city": "East Moriches",
    "state": "NY",
    "country": "USA",
    "latitude": 40.82787639,
    "longitude": -72.74871083
  },
  {
    "iata": "1N4",
    "name": "Woodbine Muni",
    "city": "Woodbine",
    "state": "NJ",
    "country": "USA",
    "latitude": 39.21915,
    "longitude": -74.794765
  },
  {
    "iata": "1N7",
    "name": "Blairstown",
    "city": "Blairstown",
    "state": "NJ",
    "country": "USA",
    "latitude": 40.97114556,
    "longitude": -74.99747556
  },
  {
    "iata": "1N9",
    "name": "Allentown Queen City Muni",
    "city": "Allentown",
    "state": "PA",
    "country": "USA",
    "latitude": 40.57027778,
    "longitude": -75.48830556
  },
  {
    "iata": "1ND3",
    "name": "Hamry",
    "city": "Kindred",
    "state": "ND",
    "country": "USA",
    "latitude": 46.6485775,
    "longitude": -97.00564306
  },
  {
    "iata": "1O1",
    "name": "Grandfield Municipal",
    "city": "Grandfield",
    "state": "OK",
    "country": "USA",
    "latitude": 34.23758944,
    "longitude": -98.74200917
  },
  {
    "iata": "1O2",
    "name": "Lampson",
    "city": "Lakeport",
    "state": "CA",
    "country": "USA",
    "latitude": 38.99017472,
    "longitude": -122.8997175
  },
  {
    "iata": "1O3",
    "name": "Lodi",
    "city": "Lodi",
    "state": "CA",
    "country": "USA",
    "latitude": 38.20241667,
    "longitude": -121.2684167
  },
  {
    "iata": "1O4",
    "name": "Thomas Municipal",
    "city": "Thomas",
    "state": "OK",
    "country": "USA",
    "latitude": 35.73338222,
    "longitude": -98.73063833
  },
  {
    "iata": "1O6",
    "name": "Dunsmuir Municipal-Mott",
    "city": "Dunsmuir",
    "state": "CA",
    "country": "USA",
    "latitude": 41.26320889,
    "longitude": -122.2719528
  },
  {
    "iata": "1R1",
    "name": "Jena",
    "city": "Jena",
    "state": "LA",
    "country": "USA",
    "latitude": 31.671005,
    "longitude": -92.15846722
  },
  {
    "iata": "1R7",
    "name": "Brookhaven-Lincoln County",
    "city": "Brookhaven",
    "state": "MS",
    "country": "USA",
    "latitude": 31.6058475,
    "longitude": -90.40931583
  },
  {
    "iata": "1R8",
    "name": "Bay Minette Municipal",
    "city": "Bay Minette",
    "state": "AL",
    "country": "USA",
    "latitude": 30.87046278,
    "longitude": -87.81738167
  },
  {
    "iata": "1S0",
    "name": "Pierce County",
    "city": "Puyallup",
    "state": "WA",
    "country": "USA",
    "latitude": 47.10391667,
    "longitude": -122.2871944
  },
  {
    "iata": "1S3",
    "name": "Tillitt",
    "city": "Forsyth",
    "state": "MT",
    "country": "USA",
    "latitude": 46.27110639,
    "longitude": -106.6239206
  },
  {
    "iata": "1S5",
    "name": "Sunnyside Municipal",
    "city": "Sunnyside",
    "state": "WA",
    "country": "USA",
    "latitude": 46.32763139,
    "longitude": -119.9705964
  },
  {
    "iata": "1S6",
    "name": "Priest River Muni",
    "city": "Priest River",
    "state": "ID",
    "country": "USA",
    "latitude": 48.19018611,
    "longitude": -116.9093644
  },
  {
    "iata": "1U7",
    "name": "Bear Lake County",
    "city": "Paris",
    "state": "ID",
    "country": "USA",
    "latitude": 42.24714972,
    "longitude": -111.33826
  },
  {
    "iata": "1V0",
    "name": "Navajo State Park",
    "city": "Navajo Dam",
    "state": "NM",
    "country": "USA",
    "latitude": 36.80833833,
    "longitude": -107.6514444
  },
  {
    "iata": "1V2",
    "name": "Grant County",
    "city": "Hyannis",
    "state": "NE",
    "country": "USA",
    "latitude": 42.00942944,
    "longitude": -101.7693439
  },
  {
    "iata": "1V5",
    "name": "Boulder Muni",
    "city": "Boulder",
    "state": "CO",
    "country": "USA",
    "latitude": 40.03942972,
    "longitude": -105.2258217
  },
  {
    "iata": "1V6",
    "name": "Fremont County",
    "city": "Canon City",
    "state": "CO",
    "country": "USA",
    "latitude": 38.42838111,
    "longitude": -105.1054994
  },
  {
    "iata": "1V9",
    "name": "Blake",
    "city": "Delta",
    "state": "CO",
    "country": "USA",
    "latitude": 38.78539722,
    "longitude": -108.0636611
  },
  {
    "iata": "20A",
    "name": "Robbins",
    "city": "Oneonta",
    "state": "AL",
    "country": "USA",
    "latitude": 33.97231972,
    "longitude": -86.37942722
  },
  {
    "iata": "20M",
    "name": "Macon Municipal",
    "city": "Macon",
    "state": "MS",
    "country": "USA",
    "latitude": 33.13345889,
    "longitude": -88.53559806
  },
  {
    "iata": "20N",
    "name": "Kingston-Ulster",
    "city": "Kingston",
    "state": "NY",
    "country": "USA",
    "latitude": 41.9852525,
    "longitude": -73.96409722
  },
  {
    "iata": "20U",
    "name": "Beach",
    "city": "Beach",
    "state": "ND",
    "country": "USA",
    "latitude": 46.92362444,
    "longitude": -103.9785389
  },
  {
    "iata": "20V",
    "name": "McElroy Airfield",
    "city": "Kremmling",
    "state": "CO",
    "country": "USA",
    "latitude": 40.05367972,
    "longitude": -106.3689467
  },
  {
    "iata": "21D",
    "name": "Lake Elmo",
    "city": "St Paul",
    "state": "MN",
    "country": "USA",
    "latitude": 44.99748861,
    "longitude": -92.85568111
  },
  {
    "iata": "21F",
    "name": "Jacksboro Municipal",
    "city": "Jacksboro",
    "state": "TX",
    "country": "USA",
    "latitude": 33.228725,
    "longitude": -98.14671083
  },
  {
    "iata": "22B",
    "name": "Mountain Meadow Airstrip",
    "city": "Burlington",
    "state": "CT",
    "country": "USA",
    "latitude": 41.77287528,
    "longitude": -73.01121667
  },
  {
    "iata": "22I",
    "name": "Vinton County",
    "city": "McArthur",
    "state": "OH",
    "country": "USA",
    "latitude": 39.328125,
    "longitude": -82.44182167
  },
  {
    "iata": "22M",
    "name": "Pontotoc County",
    "city": "Pontotoc",
    "state": "MS",
    "country": "USA",
    "latitude": 34.27593833,
    "longitude": -89.03839694
  },
  {
    "iata": "22N",
    "name": "Carbon Cty-Jake Arner Memorial",
    "city": "Lehighton",
    "state": "PA",
    "country": "USA",
    "latitude": 40.80950889,
    "longitude": -75.76149639
  },
  {
    "iata": "23J",
    "name": "Herlong",
    "city": "Jacksonville",
    "state": "FL",
    "country": "USA",
    "latitude": 30.27778889,
    "longitude": -81.80594722
  },
  {
    "iata": "23M",
    "name": "Clarke County",
    "city": "Quitman",
    "state": "MS",
    "country": "USA",
    "latitude": 32.08487111,
    "longitude": -88.73893389
  },
  {
    "iata": "23N",
    "name": "Bayport Aerodrome",
    "city": "Bayport",
    "state": "NY",
    "country": "USA",
    "latitude": 40.75843139,
    "longitude": -73.05372083
  },
  {
    "iata": "23R",
    "name": "Devine Municipal",
    "city": "Devine",
    "state": "TX",
    "country": "USA",
    "latitude": 29.1384075,
    "longitude": -98.94189028
  },
  {
    "iata": "24A",
    "name": "Jackson County",
    "city": "Sylva",
    "state": "NC",
    "country": "USA",
    "latitude": 35.3168625,
    "longitude": -83.20936806
  },
  {
    "iata": "24J",
    "name": "Suwannee County",
    "city": "Live Oak",
    "state": "FL",
    "country": "USA",
    "latitude": 30.30105583,
    "longitude": -83.02318778
  },
  {
    "iata": "24N",
    "name": "Jicarilla Apache Nation",
    "city": "Dulce",
    "state": "NM",
    "country": "USA",
    "latitude": 36.828535,
    "longitude": -106.8841914
  },
  {
    "iata": "25J",
    "name": "Cuthbert-Randolph",
    "city": "Cuthbert",
    "state": "GA",
    "country": "USA",
    "latitude": 31.70016583,
    "longitude": -84.82492194
  },
  {
    "iata": "25M",
    "name": "Ripley",
    "city": "Ripley",
    "state": "MS",
    "country": "USA",
    "latitude": 34.72226778,
    "longitude": -89.01504944
  },
  {
    "iata": "25R",
    "name": "International",
    "city": "Edinburg",
    "state": "TX",
    "country": "USA",
    "latitude": 26.44201083,
    "longitude": -98.12945306
  },
  {
    "iata": "26A",
    "name": "Ashland/Lineville",
    "city": "Ashland/Lineville",
    "state": "AL",
    "country": "USA",
    "latitude": 33.28761417,
    "longitude": -85.80412861
  },
  {
    "iata": "26N",
    "name": "Ocean City Muni cipal",
    "city": "Ocean City",
    "state": "NJ",
    "country": "USA",
    "latitude": 39.26347222,
    "longitude": -74.60747222
  },
  {
    "iata": "26R",
    "name": "Jackson County",
    "city": "Edna/Ganado",
    "state": "TX",
    "country": "USA",
    "latitude": 29.00101,
    "longitude": -96.58194667
  },
  {
    "iata": "26U",
    "name": "McDermitt State",
    "city": "McDermitt",
    "state": "OR",
    "country": "USA",
    "latitude": 42.00211083,
    "longitude": -117.7231972
  },
  {
    "iata": "27A",
    "name": "Elbert County-Patz",
    "city": "Elberton",
    "state": "GA",
    "country": "USA",
    "latitude": 34.09519722,
    "longitude": -82.81586417
  },
  {
    "iata": "27D",
    "name": "Myers",
    "city": "Canby",
    "state": "MN",
    "country": "USA",
    "latitude": 44.72801889,
    "longitude": -96.26309972
  },
  {
    "iata": "27J",
    "name": "Newberry Municipal",
    "city": "Newberry",
    "state": "SC",
    "country": "USA",
    "latitude": 34.30927778,
    "longitude": -81.63972222
  },
  {
    "iata": "27K",
    "name": "Georgetown-Scott County",
    "city": "Georgetown",
    "state": "KY",
    "country": "USA",
    "latitude": 38.23442528,
    "longitude": -84.43468667
  },
  {
    "iata": "28J",
    "name": "Kay Larkin",
    "city": "Palatka",
    "state": "FL",
    "country": "USA",
    "latitude": 29.65863889,
    "longitude": -81.68855556
  },
  {
    "iata": "29D",
    "name": "Grove City",
    "city": "Grove City",
    "state": "PA",
    "country": "USA",
    "latitude": 41.14597611,
    "longitude": -80.16592194
  },
  {
    "iata": "29G",
    "name": "Portage County",
    "city": "Ravenna",
    "state": "OH",
    "country": "USA",
    "latitude": 41.210195,
    "longitude": -81.25163083
  },
  {
    "iata": "29S",
    "name": "Gardiner",
    "city": "Gardiner",
    "state": "MT",
    "country": "USA",
    "latitude": 45.04993556,
    "longitude": -110.7466008
  },
  {
    "iata": "2A0",
    "name": "Mark Anton",
    "city": "Dayton",
    "state": "TN",
    "country": "USA",
    "latitude": 35.48624611,
    "longitude": -84.93109722
  },
  {
    "iata": "2A1",
    "name": "Jamestown Municipal",
    "city": "Jamestown",
    "state": "TN",
    "country": "USA",
    "latitude": 36.34970833,
    "longitude": -84.94664472
  },
  {
    "iata": "2A3",
    "name": "Larsen Bay",
    "city": "Larsen Bay",
    "state": "AK",
    "country": "USA",
    "latitude": 57.53510667,
    "longitude": -153.9784169
  },
  {
    "iata": "2A9",
    "name": "Kotlik",
    "city": "Kotlik",
    "state": "AK",
    "country": "USA",
    "latitude": 63.03116111,
    "longitude": -163.5299278
  },
  {
    "iata": "2AK",
    "name": "Lime Village",
    "city": "Lime Village",
    "state": "AK",
    "country": "USA",
    "latitude": 61.35848528,
    "longitude": -155.4403508
  },
  {
    "iata": "2B3",
    "name": "Parlin",
    "city": "Newport",
    "state": "NH",
    "country": "USA",
    "latitude": 43.38812944,
    "longitude": -72.18925417
  },
  {
    "iata": "2B7",
    "name": "Pittsfield Municipal",
    "city": "Pittsfield",
    "state": "ME",
    "country": "USA",
    "latitude": 44.76852778,
    "longitude": -69.37441667
  },
  {
    "iata": "2B9",
    "name": "Post Mills",
    "city": "Post Mills",
    "state": "VT",
    "country": "USA",
    "latitude": 43.884235,
    "longitude": -72.25370333
  },
  {
    "iata": "2D1",
    "name": "Barber",
    "city": "Alliance",
    "state": "OH",
    "country": "USA",
    "latitude": 40.97089139,
    "longitude": -81.09981889
  },
  {
    "iata": "2D5",
    "name": "Oakes Municipal",
    "city": "Oakes",
    "state": "ND",
    "country": "USA",
    "latitude": 46.17301972,
    "longitude": -98.07987556
  },
  {
    "iata": "2F5",
    "name": "Lamesa Municipal",
    "city": "Lamesa",
    "state": "TX",
    "country": "USA",
    "latitude": 32.75627778,
    "longitude": -101.9194722
  },
  {
    "iata": "2F6",
    "name": "Skiatook Municipal",
    "city": "Skiatook",
    "state": "OK",
    "country": "USA",
    "latitude": 36.357035,
    "longitude": -96.01138556
  },
  {
    "iata": "2F7",
    "name": "Commerce Municipal",
    "city": "Commerce",
    "state": "TX",
    "country": "USA",
    "latitude": 33.29288889,
    "longitude": -95.89641806
  },
  {
    "iata": "2F8",
    "name": "Morehouse Memorial",
    "city": "Bastrop",
    "state": "LA",
    "country": "USA",
    "latitude": 32.75607944,
    "longitude": -91.88057194
  },
  {
    "iata": "2G2",
    "name": "Jefferson County Airpark",
    "city": "Steubenville",
    "state": "OH",
    "country": "USA",
    "latitude": 40.35944306,
    "longitude": -80.70007806
  },
  {
    "iata": "2G3",
    "name": "Connellsville",
    "city": "Connellsville",
    "state": "PA",
    "country": "USA",
    "latitude": 39.95893667,
    "longitude": -79.65713306
  },
  {
    "iata": "2G4",
    "name": "Garrett County",
    "city": "Oakland",
    "state": "MD",
    "country": "USA",
    "latitude": 39.58027778,
    "longitude": -79.33941667
  },
  {
    "iata": "2G9",
    "name": "Somerset County",
    "city": "Somerset",
    "state": "PA",
    "country": "USA",
    "latitude": 40.03911111,
    "longitude": -79.01455556
  },
  {
    "iata": "2H0",
    "name": "Shelby County",
    "city": "Shelbyville",
    "state": "IL",
    "country": "USA",
    "latitude": 39.41042861,
    "longitude": -88.8454325
  },
  {
    "iata": "2H2",
    "name": "Aurora Memorial Municipal",
    "city": "Aurora",
    "state": "MO",
    "country": "USA",
    "latitude": 36.96230778,
    "longitude": -93.69531111
  },
  {
    "iata": "2I0",
    "name": "Madisonville Municipal",
    "city": "Madisonville",
    "state": "KY",
    "country": "USA",
    "latitude": 37.35502778,
    "longitude": -87.39963889
  },
  {
    "iata": "2I5",
    "name": "Chanute",
    "city": "Rantoul",
    "state": "IL",
    "country": "USA",
    "latitude": 40.29355556,
    "longitude": -88.14236111
  },
  {
    "iata": "2IS",
    "name": "Airglades",
    "city": "Clewiston",
    "state": "FL",
    "country": "USA",
    "latitude": 26.74200972,
    "longitude": -81.04978917
  },
  {
    "iata": "2J2",
    "name": "Liberty County",
    "city": "Hinesville",
    "state": "GA",
    "country": "USA",
    "latitude": 31.78461111,
    "longitude": -81.64116667
  },
  {
    "iata": "2J3",
    "name": "Louisville Municipal",
    "city": "Louisville",
    "state": "GA",
    "country": "USA",
    "latitude": 32.98654083,
    "longitude": -82.38568139
  },
  {
    "iata": "2J5",
    "name": "Millen",
    "city": "Millen",
    "state": "GA",
    "country": "USA",
    "latitude": 32.89376972,
    "longitude": -81.96511583
  },
  {
    "iata": "2J9",
    "name": "Quincy Municipal",
    "city": "Quincy",
    "state": "FL",
    "country": "USA",
    "latitude": 30.59786111,
    "longitude": -84.55741667
  },
  {
    "iata": "2K3",
    "name": "Stanton County Municipal",
    "city": "Johnson",
    "state": "KS",
    "country": "USA",
    "latitude": 37.58271111,
    "longitude": -101.73281
  },
  {
    "iata": "2K4",
    "name": "Scott",
    "city": "Mangum",
    "state": "OK",
    "country": "USA",
    "latitude": 34.89172583,
    "longitude": -99.52675667
  },
  {
    "iata": "2K5",
    "name": "Telida",
    "city": "Telida",
    "state": "AK",
    "country": "USA",
    "latitude": 63.39387278,
    "longitude": -153.2689733
  },
  {
    "iata": "2M0",
    "name": "Princeton-Caldwell County",
    "city": "Princeton",
    "state": "KY",
    "country": "USA",
    "latitude": 37.11560444,
    "longitude": -87.85556944
  },
  {
    "iata": "2M2",
    "name": "Lawrenceburg Municipal",
    "city": "Lawrenceburg",
    "state": "TN",
    "country": "USA",
    "latitude": 35.2343025,
    "longitude": -87.25793222
  },
  {
    "iata": "2M3",
    "name": "Sallisaw Municipal",
    "city": "Sallisaw",
    "state": "OK",
    "country": "USA",
    "latitude": 35.43816667,
    "longitude": -94.80277778
  },
  {
    "iata": "2M4",
    "name": "G. V. Montgomery",
    "city": "Forest",
    "state": "MS",
    "country": "USA",
    "latitude": 32.35347778,
    "longitude": -89.48867944
  },
  {
    "iata": "2M8",
    "name": "Charles W. Baker",
    "city": "Millington",
    "state": "TN",
    "country": "USA",
    "latitude": 35.27897583,
    "longitude": -89.93147611
  },
  {
    "iata": "2O1",
    "name": "Gansner",
    "city": "Quincy",
    "state": "CA",
    "country": "USA",
    "latitude": 39.94378056,
    "longitude": -120.9468983
  },
  {
    "iata": "2O3",
    "name": "Angwin-Parrett",
    "city": "Angwin",
    "state": "CA",
    "country": "USA",
    "latitude": 38.57851778,
    "longitude": -122.4352572
  },
  {
    "iata": "2O6",
    "name": "Chowchilla",
    "city": "Chowchilla",
    "state": "CA",
    "country": "USA",
    "latitude": 37.11244417,
    "longitude": -120.2468406
  },
  {
    "iata": "2O7",
    "name": "Independence",
    "city": "Independence",
    "state": "CA",
    "country": "USA",
    "latitude": 36.81382111,
    "longitude": -118.2050956
  },
  {
    "iata": "2O8",
    "name": "Hinton Municipal",
    "city": "Hinton",
    "state": "OK",
    "country": "USA",
    "latitude": 35.50592472,
    "longitude": -98.34236111
  },
  {
    "iata": "2P2",
    "name": "Washington Island",
    "city": "Washington Island",
    "state": "WI",
    "country": "USA",
    "latitude": 45.38620833,
    "longitude": -86.92448056
  },
  {
    "iata": "2Q3",
    "name": "Yolo Co-Davis/Woodland/Winters",
    "city": "Davis/Woodland/Winters",
    "state": "CA",
    "country": "USA",
    "latitude": 38.5790725,
    "longitude": -121.8566322
  },
  {
    "iata": "2R0",
    "name": "Waynesboro Municipal",
    "city": "Waynesboro",
    "state": "MS",
    "country": "USA",
    "latitude": 31.64599472,
    "longitude": -88.63475667
  },
  {
    "iata": "2R4",
    "name": "Peter Prince",
    "city": "Milton",
    "state": "FL",
    "country": "USA",
    "latitude": 30.63762083,
    "longitude": -86.99365278
  },
  {
    "iata": "2R5",
    "name": "St Elmo",
    "city": "St Elmo",
    "state": "AL",
    "country": "USA",
    "latitude": 30.50190833,
    "longitude": -88.27511667
  },
  {
    "iata": "2R9",
    "name": "Karnes County",
    "city": "Kenedy",
    "state": "TX",
    "country": "USA",
    "latitude": 28.8250075,
    "longitude": -97.86558333
  },
  {
    "iata": "2S1",
    "name": "Vashon Municipal",
    "city": "Vashon",
    "state": "WA",
    "country": "USA",
    "latitude": 47.45815333,
    "longitude": -122.4773506
  },
  {
    "iata": "2S6",
    "name": "Sportsman Airpark",
    "city": "Newberg",
    "state": "OR",
    "country": "USA",
    "latitude": 45.29567333,
    "longitude": -122.9553783
  },
  {
    "iata": "2S7",
    "name": "Chiloquin State",
    "city": "Chiloquin",
    "state": "OR",
    "country": "USA",
    "latitude": 42.58319167,
    "longitude": -121.8761261
  },
  {
    "iata": "2S8",
    "name": "Wilbur",
    "city": "Wilbur",
    "state": "WA",
    "country": "USA",
    "latitude": 47.75320639,
    "longitude": -118.7438936
  },
  {
    "iata": "2T1",
    "name": "Muleshoe Municipal",
    "city": "Muleshoe",
    "state": "TX",
    "country": "USA",
    "latitude": 34.18513639,
    "longitude": -102.6410981
  },
  {
    "iata": "2V1",
    "name": "Stevens",
    "city": "Pagosa Springs",
    "state": "CO",
    "country": "USA",
    "latitude": 37.277505,
    "longitude": -107.0558742
  },
  {
    "iata": "2V2",
    "name": "Vance Brand",
    "city": "Longmont",
    "state": "CO",
    "country": "USA",
    "latitude": 40.16367139,
    "longitude": -105.1630369
  },
  {
    "iata": "2V5",
    "name": "Wray Municipal",
    "city": "Wray",
    "state": "CO",
    "country": "USA",
    "latitude": 40.10032333,
    "longitude": -102.24096
  },
  {
    "iata": "2V6",
    "name": "Yuma Municipal",
    "city": "Yuma",
    "state": "CO",
    "country": "USA",
    "latitude": 40.10415306,
    "longitude": -102.7129869
  },
  {
    "iata": "2W5",
    "name": "Maryland",
    "city": "Indian Head",
    "state": "MD",
    "country": "USA",
    "latitude": 38.60053667,
    "longitude": -77.07296917
  },
  {
    "iata": "2W6",
    "name": "Captain Walter Francis Duke Regional",
    "city": "Leonardtown",
    "state": "MD",
    "country": "USA",
    "latitude": 38.31536111,
    "longitude": -76.55011111
  },
  {
    "iata": "2Y3",
    "name": "Yakutat SPB",
    "city": "Yakutat",
    "state": "AK",
    "country": "USA",
    "latitude": 59.5624775,
    "longitude": -139.7410994
  },
  {
    "iata": "2Y4",
    "name": "Rockwell City Municipal",
    "city": "Rockwell City",
    "state": "IA",
    "country": "USA",
    "latitude": 42.38748056,
    "longitude": -94.61803333
  },
  {
    "iata": "31F",
    "name": "Gaines County",
    "city": "Seminole",
    "state": "TX",
    "country": "USA",
    "latitude": 32.67535389,
    "longitude": -102.652685
  },
  {
    "iata": "32M",
    "name": "Norfolk",
    "city": "Norfolk",
    "state": "MA",
    "country": "USA",
    "latitude": 42.12787528,
    "longitude": -71.37033556
  },
  {
    "iata": "32S",
    "name": "Stevensville",
    "city": "Stevensville",
    "state": "MT",
    "country": "USA",
    "latitude": 46.52511111,
    "longitude": -114.0528056
  },
  {
    "iata": "33J",
    "name": "Geneva Municipal",
    "city": "Geneva",
    "state": "AL",
    "country": "USA",
    "latitude": 31.05527778,
    "longitude": -85.88033333
  },
  {
    "iata": "33M",
    "name": "Water Valley",
    "city": "Water Valley",
    "state": "MS",
    "country": "USA",
    "latitude": 34.16677639,
    "longitude": -89.68619722
  },
  {
    "iata": "33N",
    "name": "Delaware Airpark",
    "city": "Dover",
    "state": "DE",
    "country": "USA",
    "latitude": 39.21837556,
    "longitude": -75.59642667
  },
  {
    "iata": "33S",
    "name": "Pru",
    "city": "Ritzville",
    "state": "WA",
    "country": "USA",
    "latitude": 47.12487194,
    "longitude": -118.3927539
  },
  {
    "iata": "34A",
    "name": "Laurens County",
    "city": "Laurens",
    "state": "SC",
    "country": "USA",
    "latitude": 34.50705556,
    "longitude": -81.94719444
  },
  {
    "iata": "35A",
    "name": "Union County, Troy Shelton",
    "city": "Union",
    "state": "SC",
    "country": "USA",
    "latitude": 34.68680111,
    "longitude": -81.64121167
  },
  {
    "iata": "35D",
    "name": "Padgham",
    "city": "Allegan",
    "state": "MI",
    "country": "USA",
    "latitude": 42.53098278,
    "longitude": -85.82513556
  },
  {
    "iata": "35S",
    "name": "Wasco State",
    "city": "Wasco",
    "state": "OR",
    "country": "USA",
    "latitude": 45.58944444,
    "longitude": -120.6741667
  },
  {
    "iata": "36K",
    "name": "Lakin",
    "city": "Lakin",
    "state": "KS",
    "country": "USA",
    "latitude": 37.96946389,
    "longitude": -101.2554472
  },
  {
    "iata": "36S",
    "name": "Happy Camp",
    "city": "Happy Camp",
    "state": "CA",
    "country": "USA",
    "latitude": 41.79067944,
    "longitude": -123.3889444
  },
  {
    "iata": "36U",
    "name": "Heber City Municipal/Russ McDonald",
    "city": "Heber",
    "state": "UT",
    "country": "USA",
    "latitude": 40.48180556,
    "longitude": -111.4288056
  },
  {
    "iata": "37T",
    "name": "Calico Rock-Izard County",
    "city": "Calico Rock",
    "state": "AR",
    "country": "USA",
    "latitude": 36.16565278,
    "longitude": -92.14523611
  },
  {
    "iata": "37W",
    "name": "Harnett County",
    "city": "Erwin",
    "state": "NC",
    "country": "USA",
    "latitude": 35.37880028,
    "longitude": -78.73362917
  },
  {
    "iata": "38A",
    "name": "Shaktoolik",
    "city": "Shaktoolik",
    "state": "AK",
    "country": "USA",
    "latitude": 64.36263194,
    "longitude": -161.2025369
  },
  {
    "iata": "38S",
    "name": "Deer Lodge-City-County",
    "city": "Deer Lodge",
    "state": "MT",
    "country": "USA",
    "latitude": 46.38881583,
    "longitude": -112.7669842
  },
  {
    "iata": "38U",
    "name": "Wayne Wonderland",
    "city": "Loa",
    "state": "UT",
    "country": "USA",
    "latitude": 38.36247972,
    "longitude": -111.5960164
  },
  {
    "iata": "39N",
    "name": "Princeton",
    "city": "Princeton",
    "state": "NJ",
    "country": "USA",
    "latitude": 40.39834833,
    "longitude": -74.65760361
  },
  {
    "iata": "3A0",
    "name": "Grove Hill Municipal",
    "city": "Grove Hill",
    "state": "AL",
    "country": "USA",
    "latitude": 31.68932389,
    "longitude": -87.7613875
  },
  {
    "iata": "3A1",
    "name": "Folsom",
    "city": "Cullman",
    "state": "AL",
    "country": "USA",
    "latitude": 34.26870833,
    "longitude": -86.85833611
  },
  {
    "iata": "3A2",
    "name": "New Tazewell Municipal",
    "city": "Tazewell",
    "state": "TN",
    "country": "USA",
    "latitude": 36.41008417,
    "longitude": -83.55546167
  },
  {
    "iata": "3A3",
    "name": "Anson County",
    "city": "Wadesboro",
    "state": "NC",
    "country": "USA",
    "latitude": 35.02397611,
    "longitude": -80.08127333
  },
  {
    "iata": "3AU",
    "name": "Augusta Municipal",
    "city": "Augusta",
    "state": "KS",
    "country": "USA",
    "latitude": 37.67162778,
    "longitude": -97.07787222
  },
  {
    "iata": "3B0",
    "name": "Southbridge Municipal",
    "city": "Southbridge",
    "state": "MA",
    "country": "USA",
    "latitude": 42.10092806,
    "longitude": -72.03840833
  },
  {
    "iata": "3B1",
    "name": "Greenville Municipal",
    "city": "Greenville",
    "state": "ME",
    "country": "USA",
    "latitude": 45.46302778,
    "longitude": -69.55161111
  },
  {
    "iata": "3B2",
    "name": "Marshfield",
    "city": "Marshfield",
    "state": "MA",
    "country": "USA",
    "latitude": 42.09824111,
    "longitude": -70.67212083
  },
  {
    "iata": "3B9",
    "name": "Chester",
    "city": "Chester",
    "state": "CT",
    "country": "USA",
    "latitude": 41.38390472,
    "longitude": -72.50589444
  },
  {
    "iata": "3BS",
    "name": "Jack Barstow",
    "city": "Midland",
    "state": "MI",
    "country": "USA",
    "latitude": 43.66291528,
    "longitude": -84.261325
  },
  {
    "iata": "3CK",
    "name": "Lake In The Hills",
    "city": "Lake In The Hills",
    "state": "IL",
    "country": "USA",
    "latitude": 42.20680306,
    "longitude": -88.32304028
  },
  {
    "iata": "3CM",
    "name": "James Clements Municipal",
    "city": "Bay City",
    "state": "MI",
    "country": "USA",
    "latitude": 43.54691667,
    "longitude": -83.89550222
  },
  {
    "iata": "3CU",
    "name": "Cable Union",
    "city": "Cable",
    "state": "WI",
    "country": "USA",
    "latitude": 46.19424889,
    "longitude": -91.24640972
  },
  {
    "iata": "3D2",
    "name": "Ephraim/Gibraltar",
    "city": "Ephraim",
    "state": "WI",
    "country": "USA",
    "latitude": 45.13535778,
    "longitude": -87.18586556
  },
  {
    "iata": "3D4",
    "name": "Frankfort Dow Memorial",
    "city": "Frankfort",
    "state": "MI",
    "country": "USA",
    "latitude": 44.62506389,
    "longitude": -86.20061944
  },
  {
    "iata": "3F3",
    "name": "De Soto Parish",
    "city": "Mansfield",
    "state": "LA",
    "country": "USA",
    "latitude": 32.07345972,
    "longitude": -93.76551889
  },
  {
    "iata": "3F4",
    "name": "Vivian",
    "city": "Vivian",
    "state": "LA",
    "country": "USA",
    "latitude": 32.86133333,
    "longitude": -94.01015361
  },
  {
    "iata": "3F7",
    "name": "Jones Memorial",
    "city": "Bristow",
    "state": "OK",
    "country": "USA",
    "latitude": 35.80685278,
    "longitude": -96.42185556
  },
  {
    "iata": "3FM",
    "name": "Fremont Municipal",
    "city": "Fremont",
    "state": "MI",
    "country": "USA",
    "latitude": 43.43890528,
    "longitude": -85.99478
  },
  {
    "iata": "3FU",
    "name": "Faulkton Municipal",
    "city": "Faulkton",
    "state": "SD",
    "country": "USA",
    "latitude": 45.03191861,
    "longitude": -99.11566417
  },
  {
    "iata": "3G3",
    "name": "Wadsworth Municipal",
    "city": "Wadsworth",
    "state": "OH",
    "country": "USA",
    "latitude": 41.00158222,
    "longitude": -81.75513111
  },
  {
    "iata": "3G4",
    "name": "Ashland County",
    "city": "Ashland",
    "state": "OH",
    "country": "USA",
    "latitude": 40.90297222,
    "longitude": -82.25563889
  },
  {
    "iata": "3G7",
    "name": "Williamson/Sodus",
    "city": "Williamson",
    "state": "NY",
    "country": "USA",
    "latitude": 43.23472222,
    "longitude": -77.12097222
  },
  {
    "iata": "3GM",
    "name": "Grand Haven Memorial Airpark",
    "city": "Grand Haven",
    "state": "MI",
    "country": "USA",
    "latitude": 43.03404639,
    "longitude": -86.1981625
  },
  {
    "iata": "3I2",
    "name": "Mason County",
    "city": "Point Pleasant",
    "state": "WV",
    "country": "USA",
    "latitude": 38.91463889,
    "longitude": -82.09858333
  },
  {
    "iata": "3I7",
    "name": "Phillipsburg",
    "city": "Phillipsburg",
    "state": "OH",
    "country": "USA",
    "latitude": 39.91344194,
    "longitude": -84.40030889
  },
  {
    "iata": "3J1",
    "name": "Ridgeland",
    "city": "Ridgeland",
    "state": "SC",
    "country": "USA",
    "latitude": 32.49268694,
    "longitude": -80.99233028
  },
  {
    "iata": "3J7",
    "name": "Greene County Airpark",
    "city": "Greensboro",
    "state": "GA",
    "country": "USA",
    "latitude": 33.59766667,
    "longitude": -83.139
  },
  {
    "iata": "3JC",
    "name": "Freeman",
    "city": "Junction City",
    "state": "KS",
    "country": "USA",
    "latitude": 39.04327556,
    "longitude": -96.84328694
  },
  {
    "iata": "3K3",
    "name": "Syracuse-Hamilton County Municipal",
    "city": "Syracuse",
    "state": "KS",
    "country": "USA",
    "latitude": 37.99167972,
    "longitude": -101.7462822
  },
  {
    "iata": "3K6",
    "name": "St Louis-Metro East",
    "city": "Troy/Marine/St. Louis",
    "state": "IL",
    "country": "USA",
    "latitude": 38.73290861,
    "longitude": -89.80656722
  },
  {
    "iata": "3K7",
    "name": "Mark Hoard Memorial",
    "city": "Leoti",
    "state": "KS",
    "country": "USA",
    "latitude": 38.45696333,
    "longitude": -101.3532161
  },
  {
    "iata": "3LC",
    "name": "Logan County",
    "city": "Lincoln",
    "state": "IL",
    "country": "USA",
    "latitude": 40.15847222,
    "longitude": -89.33497222
  },
  {
    "iata": "3LF",
    "name": "Litchfield Municipal",
    "city": "Litchfield",
    "state": "IL",
    "country": "USA",
    "latitude": 39.16635306,
    "longitude": -89.67489694
  },
  {
    "iata": "3M7",
    "name": "Lafayette Municipal",
    "city": "Lafayette",
    "state": "TN",
    "country": "USA",
    "latitude": 36.518375,
    "longitude": -86.05828083
  },
  {
    "iata": "3M8",
    "name": "North Pickens",
    "city": "Reform",
    "state": "AL",
    "country": "USA",
    "latitude": 33.38900611,
    "longitude": -88.00557806
  },
  {
    "iata": "3M9",
    "name": "Warren Municipal",
    "city": "Warren",
    "state": "AR",
    "country": "USA",
    "latitude": 33.56044333,
    "longitude": -92.08538861
  },
  {
    "iata": "3MY",
    "name": "Mt. Hawley Auxiliary",
    "city": "Peoria",
    "state": "IL",
    "country": "USA",
    "latitude": 40.79525917,
    "longitude": -89.6134025
  },
  {
    "iata": "3N6",
    "name": "Old Bridge",
    "city": "Old Bridge",
    "state": "NJ",
    "country": "USA",
    "latitude": 40.32988667,
    "longitude": -74.34678694
  },
  {
    "iata": "3N8",
    "name": "Mahnomen County",
    "city": "Mahnomen",
    "state": "MN",
    "country": "USA",
    "latitude": 47.25996056,
    "longitude": -95.92809778
  },
  {
    "iata": "3ND0",
    "name": "Northwood Municipal",
    "city": "Northwood",
    "state": "ND",
    "country": "USA",
    "latitude": 47.72423333,
    "longitude": -97.59042222
  },
  {
    "iata": "3O1",
    "name": "Gustine",
    "city": "Gustine",
    "state": "CA",
    "country": "USA",
    "latitude": 37.26271722,
    "longitude": -120.9632586
  },
  {
    "iata": "3O3",
    "name": "Municipal",
    "city": "Purcell",
    "state": "OK",
    "country": "USA",
    "latitude": 34.97979444,
    "longitude": -97.38586167
  },
  {
    "iata": "3O4",
    "name": "Sayre Municipal",
    "city": "Sayre",
    "state": "OK",
    "country": "USA",
    "latitude": 35.16755222,
    "longitude": -99.65787361
  },
  {
    "iata": "3O5",
    "name": "Walters Municipal",
    "city": "Walters",
    "state": "OK",
    "country": "USA",
    "latitude": 34.37258444,
    "longitude": -98.40588583
  },
  {
    "iata": "3O7",
    "name": "Hollister Municipal",
    "city": "Hollister",
    "state": "CA",
    "country": "USA",
    "latitude": 36.89334528,
    "longitude": -121.4102706
  },
  {
    "iata": "3O9",
    "name": "Grand Lake Regional",
    "city": "Afton",
    "state": "OK",
    "country": "USA",
    "latitude": 36.5775775,
    "longitude": -94.86190028
  },
  {
    "iata": "3R0",
    "name": "Beeville Municipal",
    "city": "Beeville",
    "state": "TX",
    "country": "USA",
    "latitude": 28.36455528,
    "longitude": -97.79208194
  },
  {
    "iata": "3R1",
    "name": "Bay City Municipal",
    "city": "Bay City",
    "state": "TX",
    "country": "USA",
    "latitude": 28.973255,
    "longitude": -95.86345528
  },
  {
    "iata": "3R2",
    "name": "Le Gros Memorial",
    "city": "Crowley",
    "state": "LA",
    "country": "USA",
    "latitude": 30.16173611,
    "longitude": -92.48396111
  },
  {
    "iata": "3R4",
    "name": "Hart",
    "city": "Many",
    "state": "LA",
    "country": "USA",
    "latitude": 31.54489667,
    "longitude": -93.48645306
  },
  {
    "iata": "3R7",
    "name": "Jennings",
    "city": "Jennings",
    "state": "LA",
    "country": "USA",
    "latitude": 30.24269333,
    "longitude": -92.67344778
  },
  {
    "iata": "3S4",
    "name": "Illinois Valley",
    "city": "Illinois Valley (Cave Junction)",
    "state": "OR",
    "country": "USA",
    "latitude": 42.10372417,
    "longitude": -123.6822911
  },
  {
    "iata": "3S8",
    "name": "Grants Pass",
    "city": "Grants Pass",
    "state": "OR",
    "country": "USA",
    "latitude": 42.51011722,
    "longitude": -123.3879894
  },
  {
    "iata": "3S9",
    "name": "Condon State-Pauling",
    "city": "Condon",
    "state": "OR",
    "country": "USA",
    "latitude": 45.24651889,
    "longitude": -120.1664233
  },
  {
    "iata": "3SG",
    "name": "Harry W Browne",
    "city": "Saginaw - H.Browne",
    "state": "MI",
    "country": "USA",
    "latitude": 43.43341028,
    "longitude": -83.86245833
  },
  {
    "iata": "3SQ",
    "name": "St Charles",
    "city": "St Charles",
    "state": "MO",
    "country": "USA",
    "latitude": 38.84866139,
    "longitude": -90.50011833
  },
  {
    "iata": "3T3",
    "name": "Boyceville Municipal",
    "city": "Boyceville",
    "state": "WI",
    "country": "USA",
    "latitude": 45.042185,
    "longitude": -92.0293475
  },
  {
    "iata": "3T5",
    "name": "Fayette Regional Air Center",
    "city": "La Grange",
    "state": "TX",
    "country": "USA",
    "latitude": 29.90930556,
    "longitude": -96.9505
  },
  {
    "iata": "3TR",
    "name": "Jerry Tyler Memorial",
    "city": "Niles",
    "state": "MI",
    "country": "USA",
    "latitude": 41.83590806,
    "longitude": -86.22517611
  },
  {
    "iata": "3U3",
    "name": "Bowman",
    "city": "Anaconda",
    "state": "MT",
    "country": "USA",
    "latitude": 46.15313278,
    "longitude": -112.86784
  },
  {
    "iata": "3U7",
    "name": "Benchmark",
    "city": "Benchmark",
    "state": "MT",
    "country": "USA",
    "latitude": 47.48133194,
    "longitude": -112.8697678
  },
  {
    "iata": "3U8",
    "name": "Big Sandy",
    "city": "Big Sandy",
    "state": "MT",
    "country": "USA",
    "latitude": 48.16247972,
    "longitude": -110.1132631
  },
  {
    "iata": "3V4",
    "name": "Fort Morgan Municipal",
    "city": "Fort Morgan",
    "state": "CO",
    "country": "USA",
    "latitude": 40.33423194,
    "longitude": -103.8039508
  },
  {
    "iata": "3WO",
    "name": "Shawano Municipal",
    "city": "Shawano",
    "state": "WI",
    "country": "USA",
    "latitude": 44.78777778,
    "longitude": -88.56152444
  },
  {
    "iata": "3Y2",
    "name": "George L Scott Municipal",
    "city": "West Union",
    "state": "IA",
    "country": "USA",
    "latitude": 42.98508917,
    "longitude": -91.79060417
  },
  {
    "iata": "3Y3",
    "name": "Winterset Madison County",
    "city": "Winterset",
    "state": "IA",
    "country": "USA",
    "latitude": 41.36276778,
    "longitude": -94.02106194
  },
  {
    "iata": "3Z9",
    "name": "Haines SPB",
    "city": "Haines",
    "state": "AK",
    "country": "USA",
    "latitude": 59.23495111,
    "longitude": -135.4407181
  },
  {
    "iata": "40J",
    "name": "Perry-Foley",
    "city": "Perry",
    "state": "FL",
    "country": "USA",
    "latitude": 30.06927778,
    "longitude": -83.58058333
  },
  {
    "iata": "40N",
    "name": "Chester Cty-G O Carlson",
    "city": "Coatesville",
    "state": "PA",
    "country": "USA",
    "latitude": 39.97897222,
    "longitude": -75.86547222
  },
  {
    "iata": "40U",
    "name": "Manila",
    "city": "Manila",
    "state": "UT",
    "country": "USA",
    "latitude": 40.98607,
    "longitude": -109.6784811
  },
  {
    "iata": "41U",
    "name": "Manti-Ephraim",
    "city": "Manti",
    "state": "UT",
    "country": "USA",
    "latitude": 39.32912833,
    "longitude": -111.6146397
  },
  {
    "iata": "42A",
    "name": "Melbourne Municipal",
    "city": "Melbourne",
    "state": "AR",
    "country": "USA",
    "latitude": 36.07079222,
    "longitude": -91.82914667
  },
  {
    "iata": "42C",
    "name": "White Cloud",
    "city": "White Cloud",
    "state": "MI",
    "country": "USA",
    "latitude": 43.55974139,
    "longitude": -85.77421944
  },
  {
    "iata": "42J",
    "name": "Keystone Airpark",
    "city": "Keystone Heights",
    "state": "FL",
    "country": "USA",
    "latitude": 29.84475,
    "longitude": -82.04752778
  },
  {
    "iata": "42S",
    "name": "Poplar",
    "city": "Poplar",
    "state": "MT",
    "country": "USA",
    "latitude": 48.11595861,
    "longitude": -105.1821928
  },
  {
    "iata": "43A",
    "name": "Montgomery County",
    "city": "Star",
    "state": "NC",
    "country": "USA",
    "latitude": 35.38819528,
    "longitude": -79.79281667
  },
  {
    "iata": "44B",
    "name": "Dover/Foxcroft",
    "city": "Dover-Foxcroft",
    "state": "ME",
    "country": "USA",
    "latitude": 45.18338806,
    "longitude": -69.2328225
  },
  {
    "iata": "44N",
    "name": "Sky Acres",
    "city": "Millbrook",
    "state": "NY",
    "country": "USA",
    "latitude": 41.70742861,
    "longitude": -73.73802889
  },
  {
    "iata": "45J",
    "name": "Rockingham-Hamlet",
    "city": "Rockingham",
    "state": "NC",
    "country": "USA",
    "latitude": 34.89107083,
    "longitude": -79.75905806
  },
  {
    "iata": "45OH",
    "name": "North Bass Island",
    "city": "North Bass Island",
    "state": "OH",
    "country": "USA",
    "latitude": 41.71932528,
    "longitude": -82.82196917
  },
  {
    "iata": "45R",
    "name": "Kountz - Hawthorne",
    "city": "Kountze/Silsbee",
    "state": "TX",
    "country": "USA",
    "latitude": 30.33633806,
    "longitude": -94.25754361
  },
  {
    "iata": "46A",
    "name": "Blairsville",
    "city": "Blairsville",
    "state": "GA",
    "country": "USA",
    "latitude": 34.85508722,
    "longitude": -83.996855
  },
  {
    "iata": "46D",
    "name": "Carrington Municipal",
    "city": "Carrington",
    "state": "ND",
    "country": "USA",
    "latitude": 47.45111111,
    "longitude": -99.15111111
  },
  {
    "iata": "46N",
    "name": "Sky Park",
    "city": "Red Hook",
    "state": "NY",
    "country": "USA",
    "latitude": 41.98458333,
    "longitude": -73.83596556
  },
  {
    "iata": "47A",
    "name": "Cherokee County",
    "city": "Canton",
    "state": "GA",
    "country": "USA",
    "latitude": 34.31058333,
    "longitude": -84.42391667
  },
  {
    "iata": "47J",
    "name": "Cheraw Municipal",
    "city": "Cheraw",
    "state": "SC",
    "country": "USA",
    "latitude": 34.71258333,
    "longitude": -79.95794444
  },
  {
    "iata": "47N",
    "name": "Central Jersey Regional",
    "city": "Manville",
    "state": "NJ",
    "country": "USA",
    "latitude": 40.52438417,
    "longitude": -74.59839194
  },
  {
    "iata": "47V",
    "name": "Curtis Municipal",
    "city": "Curtis",
    "state": "NE",
    "country": "USA",
    "latitude": 40.63750778,
    "longitude": -100.4712539
  },
  {
    "iata": "48A",
    "name": "Cochran",
    "city": "Cochran",
    "state": "GA",
    "country": "USA",
    "latitude": 32.39936111,
    "longitude": -83.27591667
  },
  {
    "iata": "48D",
    "name": "Clare Municipal",
    "city": "Clare",
    "state": "MI",
    "country": "USA",
    "latitude": 43.83111111,
    "longitude": -84.74133333
  },
  {
    "iata": "48I",
    "name": "Braxton County",
    "city": "Sutton",
    "state": "WV",
    "country": "USA",
    "latitude": 38.68704444,
    "longitude": -80.65176083
  },
  {
    "iata": "48K",
    "name": "Ness City Municipal",
    "city": "Ness City",
    "state": "KS",
    "country": "USA",
    "latitude": 38.47110278,
    "longitude": -99.90806667
  },
  {
    "iata": "48S",
    "name": "Harlem",
    "city": "Harlem",
    "state": "MT",
    "country": "USA",
    "latitude": 48.56666472,
    "longitude": -108.7729339
  },
  {
    "iata": "48V",
    "name": "Tri-County",
    "city": "Erie",
    "state": "CO",
    "country": "USA",
    "latitude": 40.010225,
    "longitude": -105.047975
  },
  {
    "iata": "49A",
    "name": "Gilmer County",
    "city": "Ellijay",
    "state": "GA",
    "country": "USA",
    "latitude": 34.62786417,
    "longitude": -84.52492889
  },
  {
    "iata": "49T",
    "name": "Downtown Heliport",
    "city": "Dallas",
    "state": "TX",
    "country": "USA",
    "latitude": 32.77333333,
    "longitude": -96.80027778
  },
  {
    "iata": "49X",
    "name": "Chemehuevi Valley",
    "city": "Chemehuevi Valley",
    "state": "CA",
    "country": "USA",
    "latitude": 34.52751083,
    "longitude": -114.4310697
  },
  {
    "iata": "49Y",
    "name": "Fillmore County",
    "city": "Preston",
    "state": "MN",
    "country": "USA",
    "latitude": 43.67676,
    "longitude": -92.17973444
  },
  {
    "iata": "4A2",
    "name": "Atmautluak",
    "city": "Atmautluak",
    "state": "AK",
    "country": "USA",
    "latitude": 60.86674556,
    "longitude": -162.2731389
  },
  {
    "iata": "4A4",
    "name": "Cornelius-Moore",
    "city": "Cedartown",
    "state": "GA",
    "country": "USA",
    "latitude": 34.01869444,
    "longitude": -85.14647222
  },
  {
    "iata": "4A5",
    "name": "Marshall-Searcy County",
    "city": "Marshall",
    "state": "AR",
    "country": "USA",
    "latitude": 35.89893667,
    "longitude": -92.65588611
  },
  {
    "iata": "4A6",
    "name": "Scottsboro Municipal",
    "city": "Scottsboro",
    "state": "AL",
    "country": "USA",
    "latitude": 34.68897278,
    "longitude": -86.0058125
  },
  {
    "iata": "4A7",
    "name": "Clayton County",
    "city": "Hampton",
    "state": "GA",
    "country": "USA",
    "latitude": 33.38911111,
    "longitude": -84.33236111
  },
  {
    "iata": "4A9",
    "name": "Isbell",
    "city": "Fort Payne",
    "state": "AL",
    "country": "USA",
    "latitude": 34.4728925,
    "longitude": -85.72221722
  },
  {
    "iata": "4B0",
    "name": "South Albany",
    "city": "South Bethlehem",
    "state": "NY",
    "country": "USA",
    "latitude": 42.56072611,
    "longitude": -73.83395639
  },
  {
    "iata": "4B1",
    "name": "Duanesburg",
    "city": "Duanesburg",
    "state": "NY",
    "country": "USA",
    "latitude": 42.75840889,
    "longitude": -74.13290472
  },
  {
    "iata": "4B6",
    "name": "Ticonderoga Muni",
    "city": "Ticonderoga",
    "state": "NY",
    "country": "USA",
    "latitude": 43.87700278,
    "longitude": -73.41317639
  },
  {
    "iata": "4B7",
    "name": "Schroon Lake",
    "city": "Schroon Lake",
    "state": "NY",
    "country": "USA",
    "latitude": 43.86256083,
    "longitude": -73.74262972
  },
  {
    "iata": "4B8",
    "name": "Robertson",
    "city": "Plainville",
    "state": "CT",
    "country": "USA",
    "latitude": 41.69037667,
    "longitude": -72.8648225
  },
  {
    "iata": "4B9",
    "name": "Simsbury Tri-Town",
    "city": "Simsbury",
    "state": "CT",
    "country": "USA",
    "latitude": 41.91676389,
    "longitude": -72.77731778
  },
  {
    "iata": "4C8",
    "name": "Albia Municipal",
    "city": "Albia",
    "state": "IA",
    "country": "USA",
    "latitude": 40.99445361,
    "longitude": -92.76297194
  },
  {
    "iata": "4D0",
    "name": "Abrams Municipal",
    "city": "Grandledge",
    "state": "MI",
    "country": "USA",
    "latitude": 42.77420167,
    "longitude": -84.73309806
  },
  {
    "iata": "4D9",
    "name": "Alma Municipal",
    "city": "Alma",
    "state": "NE",
    "country": "USA",
    "latitude": 40.11389972,
    "longitude": -99.34565306
  },
  {
    "iata": "4F2",
    "name": "Panola County-Sharpe",
    "city": "Carthage",
    "state": "TX",
    "country": "USA",
    "latitude": 32.17608333,
    "longitude": -94.29880556
  },
  {
    "iata": "4F4",
    "name": "Gilmer-Upshur County",
    "city": "Gilmer",
    "state": "TX",
    "country": "USA",
    "latitude": 32.699,
    "longitude": -94.94886111
  },
  {
    "iata": "4G1",
    "name": "Greenville Muni",
    "city": "Greenville",
    "state": "PA",
    "country": "USA",
    "latitude": 41.44683167,
    "longitude": -80.39126167
  },
  {
    "iata": "4G2",
    "name": "Hamburg Inc.",
    "city": "Hamburg",
    "state": "NY",
    "country": "USA",
    "latitude": 42.7008925,
    "longitude": -78.91475694
  },
  {
    "iata": "4G5",
    "name": "Monroe County",
    "city": "Woodsfield",
    "state": "OH",
    "country": "USA",
    "latitude": 39.77904472,
    "longitude": -81.10277222
  },
  {
    "iata": "4G6",
    "name": "Hornell Muni",
    "city": "Hornell",
    "state": "NY",
    "country": "USA",
    "latitude": 42.38214444,
    "longitude": -77.6821125
  },
  {
    "iata": "4G7",
    "name": "Fairmont Muni",
    "city": "Fairmont",
    "state": "WV",
    "country": "USA",
    "latitude": 39.44816667,
    "longitude": -80.16702778
  },
  {
    "iata": "4I0",
    "name": "Mingo County",
    "city": "Williamson",
    "state": "WV",
    "country": "USA",
    "latitude": 37.68760139,
    "longitude": -82.26097306
  },
  {
    "iata": "4I3",
    "name": "Knox County",
    "city": "Mount Vernon",
    "state": "OH",
    "country": "USA",
    "latitude": 40.32872222,
    "longitude": -82.52377778
  },
  {
    "iata": "4I7",
    "name": "Putnam County",
    "city": "Greencastle",
    "state": "IN",
    "country": "USA",
    "latitude": 39.63359556,
    "longitude": -86.8138325
  },
  {
    "iata": "4I9",
    "name": "Morrow County",
    "city": "Mt. Gilead",
    "state": "OH",
    "country": "USA",
    "latitude": 40.52452778,
    "longitude": -82.85005556
  },
  {
    "iata": "4J1",
    "name": "Brantley County",
    "city": "Nahunta",
    "state": "GA",
    "country": "USA",
    "latitude": 31.21272417,
    "longitude": -81.90539083
  },
  {
    "iata": "4J2",
    "name": "Berrien County",
    "city": "Nashville",
    "state": "GA",
    "country": "USA",
    "latitude": 31.21255556,
    "longitude": -83.22627778
  },
  {
    "iata": "4J5",
    "name": "Quitman-Brooks County",
    "city": "Quitman",
    "state": "GA",
    "country": "USA",
    "latitude": 30.80575139,
    "longitude": -83.58654889
  },
  {
    "iata": "4J6",
    "name": "St Marys",
    "city": "St Marys",
    "state": "GA",
    "country": "USA",
    "latitude": 30.75468028,
    "longitude": -81.55731917
  },
  {
    "iata": "4K0",
    "name": "Pedro Bay",
    "city": "Pedro Bay",
    "state": "AK",
    "country": "USA",
    "latitude": 59.78960972,
    "longitude": -154.1238331
  },
  {
    "iata": "4K5",
    "name": "Ouzinkie",
    "city": "Ouzinkie",
    "state": "AK",
    "country": "USA",
    "latitude": 57.92287611,
    "longitude": -152.5005111
  },
  {
    "iata": "4K6",
    "name": "Bloomfield Municipal",
    "city": "Bloomfield",
    "state": "IA",
    "country": "USA",
    "latitude": 40.73210556,
    "longitude": -92.42826889
  },
  {
    "iata": "4KA",
    "name": "Tununak",
    "city": "Tununak",
    "state": "AK",
    "country": "USA",
    "latitude": 60.57559667,
    "longitude": -165.2731272
  },
  {
    "iata": "4M1",
    "name": "Carroll County",
    "city": "Berryville",
    "state": "AR",
    "country": "USA",
    "latitude": 36.38340333,
    "longitude": -93.61685667
  },
  {
    "iata": "4M3",
    "name": "Carlisle Municipal",
    "city": "Carlisle",
    "state": "AR",
    "country": "USA",
    "latitude": 34.80823,
    "longitude": -91.71205083
  },
  {
    "iata": "4M4",
    "name": "Clinton Municipal",
    "city": "Clinton",
    "state": "AR",
    "country": "USA",
    "latitude": 35.59785528,
    "longitude": -92.45182472
  },
  {
    "iata": "4M7",
    "name": "Russellville-Logan County",
    "city": "Russellville",
    "state": "KY",
    "country": "USA",
    "latitude": 36.79991667,
    "longitude": -86.81016667
  },
  {
    "iata": "4M8",
    "name": "Clarendon Municipal",
    "city": "Clarendon",
    "state": "AR",
    "country": "USA",
    "latitude": 34.64870694,
    "longitude": -91.39457111
  },
  {
    "iata": "4M9",
    "name": "Corning Municipal",
    "city": "Corning",
    "state": "AR",
    "country": "USA",
    "latitude": 36.40423139,
    "longitude": -90.64792639
  },
  {
    "iata": "4N1",
    "name": "Greenwood Lake",
    "city": "West Milford",
    "state": "NJ",
    "country": "USA",
    "latitude": 41.12854806,
    "longitude": -74.34584611
  },
  {
    "iata": "4O3",
    "name": "Blackwell-Tonkawa Municipal",
    "city": "Blackwell-Tonkawa",
    "state": "OK",
    "country": "USA",
    "latitude": 36.74511583,
    "longitude": -97.34959972
  },
  {
    "iata": "4O4",
    "name": "McCurtain County Regional",
    "city": "Idabel",
    "state": "OK",
    "country": "USA",
    "latitude": 33.909325,
    "longitude": -94.85835278
  },
  {
    "iata": "4O5",
    "name": "Cherokee Municipal",
    "city": "Cherokee",
    "state": "OK",
    "country": "USA",
    "latitude": 36.78336306,
    "longitude": -98.35035083
  },
  {
    "iata": "4PH",
    "name": "Polacca",
    "city": "Polacca",
    "state": "AZ",
    "country": "USA",
    "latitude": 35.79167222,
    "longitude": -110.4234653
  },
  {
    "iata": "4R1",
    "name": "I H Bass Jr Memorial",
    "city": "Lumberton",
    "state": "MS",
    "country": "USA",
    "latitude": 31.01546028,
    "longitude": -89.48256556
  },
  {
    "iata": "4R3",
    "name": "Jackson Municipal",
    "city": "Jackson",
    "state": "AL",
    "country": "USA",
    "latitude": 31.47210861,
    "longitude": -87.89472083
  },
  {
    "iata": "4R4",
    "name": "Fairhope Municipal",
    "city": "Fairhope",
    "state": "AL",
    "country": "USA",
    "latitude": 30.4621125,
    "longitude": -87.87801972
  },
  {
    "iata": "4R5",
    "name": "Madeline Island",
    "city": "La Pointe",
    "state": "WI",
    "country": "USA",
    "latitude": 46.78865556,
    "longitude": -90.75866944
  },
  {
    "iata": "4R7",
    "name": "Eunice",
    "city": "Eunice",
    "state": "LA",
    "country": "USA",
    "latitude": 30.46628389,
    "longitude": -92.42379917
  },
  {
    "iata": "4R9",
    "name": "Dauphin Island",
    "city": "Dauphin Island",
    "state": "AL",
    "country": "USA",
    "latitude": 30.26048083,
    "longitude": -88.12749972
  },
  {
    "iata": "4S1",
    "name": "Gold Beach Muni",
    "city": "Gold Beach",
    "state": "OR",
    "country": "USA",
    "latitude": 42.41344444,
    "longitude": -124.4242742
  },
  {
    "iata": "4S2",
    "name": "Hood River",
    "city": "Hood River",
    "state": "OR",
    "country": "USA",
    "latitude": 45.67261833,
    "longitude": -121.5364625
  },
  {
    "iata": "4S3",
    "name": "Joseph State",
    "city": "Joseph",
    "state": "OR",
    "country": "USA",
    "latitude": 45.35709583,
    "longitude": -117.2532244
  },
  {
    "iata": "4S9",
    "name": "Portland-Mulino",
    "city": "Mulino (Portland)",
    "state": "OR",
    "country": "USA",
    "latitude": 45.21632417,
    "longitude": -122.5900839
  },
  {
    "iata": "4SD",
    "name": "Reno/Stead",
    "city": "Reno",
    "state": "NV",
    "country": "USA",
    "latitude": 39.66738111,
    "longitude": -119.8754169
  },
  {
    "iata": "4T6",
    "name": "Mid-Way",
    "city": "Midlothian-Waxahachie",
    "state": "TX",
    "country": "USA",
    "latitude": 32.45609722,
    "longitude": -96.91240972
  },
  {
    "iata": "4U3",
    "name": "Liberty County",
    "city": "Chester",
    "state": "MT",
    "country": "USA",
    "latitude": 48.51072222,
    "longitude": -110.9908639
  },
  {
    "iata": "4U6",
    "name": "Circle Town County",
    "city": "Circle",
    "state": "MT",
    "country": "USA",
    "latitude": 47.41861972,
    "longitude": -105.5619431
  },
  {
    "iata": "4V0",
    "name": "Rangely",
    "city": "Rangely",
    "state": "CO",
    "country": "USA",
    "latitude": 40.09469917,
    "longitude": -108.7612172
  },
  {
    "iata": "4V1",
    "name": "Johnson",
    "city": "Walsenburg",
    "state": "CO",
    "country": "USA",
    "latitude": 37.69640056,
    "longitude": -104.7838747
  },
  {
    "iata": "4V9",
    "name": "Antelope County",
    "city": "Neligh",
    "state": "NE",
    "country": "USA",
    "latitude": 42.11222889,
    "longitude": -98.0386775
  },
  {
    "iata": "4W1",
    "name": "Elizabethtown Municipal",
    "city": "Elizabethtown",
    "state": "NC",
    "country": "USA",
    "latitude": 34.60183722,
    "longitude": -78.57973306
  },
  {
    "iata": "4Z4",
    "name": "Holy Cross",
    "city": "Holy Cross",
    "state": "AK",
    "country": "USA",
    "latitude": 62.18829583,
    "longitude": -159.7749503
  },
  {
    "iata": "4Z7",
    "name": "Hyder SPB",
    "city": "Hyder",
    "state": "AK",
    "country": "USA",
    "latitude": 55.90331972,
    "longitude": -130.0067031
  },
  {
    "iata": "50I",
    "name": "Kentland Municipal",
    "city": "Kentland",
    "state": "IN",
    "country": "USA",
    "latitude": 40.75873222,
    "longitude": -87.42821917
  },
  {
    "iata": "50J",
    "name": "Berkeley County",
    "city": "Moncks Corner",
    "state": "SC",
    "country": "USA",
    "latitude": 33.18605556,
    "longitude": -80.03563889
  },
  {
    "iata": "50K",
    "name": "Pawnee City Municipal",
    "city": "Pawnee City",
    "state": "NE",
    "country": "USA",
    "latitude": 40.11611111,
    "longitude": -96.19445278
  },
  {
    "iata": "50R",
    "name": "Lockhart Municipal",
    "city": "Lockhart",
    "state": "TX",
    "country": "USA",
    "latitude": 29.85033333,
    "longitude": -97.67241667
  },
  {
    "iata": "51D",
    "name": "Edgeley Municipal",
    "city": "Edgeley",
    "state": "ND",
    "country": "USA",
    "latitude": 46.34858333,
    "longitude": -98.73555556
  },
  {
    "iata": "51Z",
    "name": "Minto (New)",
    "city": "Minto",
    "state": "AK",
    "country": "USA",
    "latitude": 65.14370889,
    "longitude": -149.3699647
  },
  {
    "iata": "52A",
    "name": "Madison Municipal",
    "city": "Madison",
    "state": "GA",
    "country": "USA",
    "latitude": 33.61212528,
    "longitude": -83.46044333
  },
  {
    "iata": "52E",
    "name": "Timberon",
    "city": "Timberon",
    "state": "NM",
    "country": "USA",
    "latitude": 32.63388889,
    "longitude": -105.6863889
  },
  {
    "iata": "52J",
    "name": "Lee County",
    "city": "Bishopville",
    "state": "SC",
    "country": "USA",
    "latitude": 34.24459889,
    "longitude": -80.23729333
  },
  {
    "iata": "53A",
    "name": "Dr. C.P. Savage, Sr.",
    "city": "Montezuma",
    "state": "GA",
    "country": "USA",
    "latitude": 32.302,
    "longitude": -84.00747222
  },
  {
    "iata": "53K",
    "name": "Osage City Municipal",
    "city": "Osage City",
    "state": "KS",
    "country": "USA",
    "latitude": 38.63334222,
    "longitude": -95.80859806
  },
  {
    "iata": "54J",
    "name": "Defuniak Springs",
    "city": "Defuniak Springs",
    "state": "FL",
    "country": "USA",
    "latitude": 30.7313,
    "longitude": -86.15160833
  },
  {
    "iata": "55D",
    "name": "Grayling Army Airfield",
    "city": "Grayling",
    "state": "MI",
    "country": "USA",
    "latitude": 44.68032028,
    "longitude": -84.72886278
  },
  {
    "iata": "55J",
    "name": "Fernandina Beach Municipal",
    "city": "Fernandina Beach",
    "state": "FL",
    "country": "USA",
    "latitude": 30.61170083,
    "longitude": -81.462345
  },
  {
    "iata": "55S",
    "name": "Packwood",
    "city": "Packwood",
    "state": "WA",
    "country": "USA",
    "latitude": 46.60400083,
    "longitude": -121.6778664
  },
  {
    "iata": "56D",
    "name": "Wyandot County",
    "city": "Upper Sandusky",
    "state": "OH",
    "country": "USA",
    "latitude": 40.88336139,
    "longitude": -83.3145325
  },
  {
    "iata": "56M",
    "name": "Warsaw Municipal",
    "city": "Warsaw",
    "state": "MO",
    "country": "USA",
    "latitude": 38.34688889,
    "longitude": -93.345425
  },
  {
    "iata": "56S",
    "name": "Seaside Municipal",
    "city": "Seaside",
    "state": "OR",
    "country": "USA",
    "latitude": 46.01649694,
    "longitude": -123.9054167
  },
  {
    "iata": "57B",
    "name": "Islesboro",
    "city": "Islesboro",
    "state": "ME",
    "country": "USA",
    "latitude": 44.30285556,
    "longitude": -68.91058722
  },
  {
    "iata": "57C",
    "name": "East Troy Municipal",
    "city": "East Troy",
    "state": "WI",
    "country": "USA",
    "latitude": 42.79711111,
    "longitude": -88.3725
  },
  {
    "iata": "59B",
    "name": "Newton",
    "city": "Jackman",
    "state": "ME",
    "country": "USA",
    "latitude": 45.63199111,
    "longitude": -70.24728944
  },
  {
    "iata": "5A4",
    "name": "Okolona Mun.-Richard M. Stovall",
    "city": "Okolona",
    "state": "MS",
    "country": "USA",
    "latitude": 34.01580528,
    "longitude": -88.72618944
  },
  {
    "iata": "5A6",
    "name": "Winona-Montgomery County",
    "city": "Winona",
    "state": "MS",
    "country": "USA",
    "latitude": 33.46540139,
    "longitude": -89.72924806
  },
  {
    "iata": "5A8",
    "name": "Aleknagik",
    "city": "Aleknagik",
    "state": "AK",
    "country": "USA",
    "latitude": 59.28256167,
    "longitude": -158.6176725
  },
  {
    "iata": "5A9",
    "name": "Roosevelt Memorial",
    "city": "Warm Springs",
    "state": "GA",
    "country": "USA",
    "latitude": 32.93346222,
    "longitude": -84.68881639
  },
  {
    "iata": "5B2",
    "name": "Saratoga Cty",
    "city": "Saratoga Springs",
    "state": "NY",
    "country": "USA",
    "latitude": 43.05126111,
    "longitude": -73.86119444
  },
  {
    "iata": "5B3",
    "name": "Danielson",
    "city": "Danielson",
    "state": "CT",
    "country": "USA",
    "latitude": 41.81974056,
    "longitude": -71.90096306
  },
  {
    "iata": "5B7",
    "name": "Rensselaer Air Park",
    "city": "Troy",
    "state": "NY",
    "country": "USA",
    "latitude": 42.69091194,
    "longitude": -73.57956
  },
  {
    "iata": "5CD",
    "name": "Chandalar Shelf",
    "city": "Chandalar Camp",
    "state": "AK",
    "country": "USA",
    "latitude": 68.06543944,
    "longitude": -149.5797392
  },
  {
    "iata": "5D3",
    "name": "Owosso Community",
    "city": "Owosso",
    "state": "MI",
    "country": "USA",
    "latitude": 42.99297222,
    "longitude": -84.1389125
  },
  {
    "iata": "5F1",
    "name": "Post-Garza County Municipal",
    "city": "Post",
    "state": "TX",
    "country": "USA",
    "latitude": 33.20370556,
    "longitude": -101.340415
  },
  {
    "iata": "5F4",
    "name": "Homer Municipal",
    "city": "Homer",
    "state": "LA",
    "country": "USA",
    "latitude": 32.78850806,
    "longitude": -93.00366083
  },
  {
    "iata": "5G0",
    "name": "Leroy",
    "city": "Le Roy",
    "state": "NY",
    "country": "USA",
    "latitude": 42.98136667,
    "longitude": -77.93751389
  },
  {
    "iata": "5G7",
    "name": "Bluffton",
    "city": "Bluffton",
    "state": "OH",
    "country": "USA",
    "latitude": 40.88544444,
    "longitude": -83.86863889
  },
  {
    "iata": "5G8",
    "name": "Pittsburgh Boquet Airpark",
    "city": "Jeanette",
    "state": "PA",
    "country": "USA",
    "latitude": 40.37645722,
    "longitude": -79.60837583
  },
  {
    "iata": "5G9",
    "name": "Toledo Suburban",
    "city": "Lambertville",
    "state": "MI",
    "country": "USA",
    "latitude": 41.7358775,
    "longitude": -83.65541056
  },
  {
    "iata": "5HO",
    "name": "Hope",
    "city": "Hope",
    "state": "AK",
    "country": "USA",
    "latitude": 60.90415028,
    "longitude": -149.6238389
  },
  {
    "iata": "5I4",
    "name": "Sheridan",
    "city": "Sheridan",
    "state": "IN",
    "country": "USA",
    "latitude": 40.17792583,
    "longitude": -86.21729889
  },
  {
    "iata": "5J0",
    "name": "John Day State",
    "city": "John Day",
    "state": "OR",
    "country": "USA",
    "latitude": 44.40416667,
    "longitude": -118.9625
  },
  {
    "iata": "5J9",
    "name": "Twin City",
    "city": "Loris",
    "state": "SC",
    "country": "USA",
    "latitude": 34.08848361,
    "longitude": -78.86462028
  },
  {
    "iata": "5K2",
    "name": "Tribune Municipal",
    "city": "Tribune",
    "state": "KS",
    "country": "USA",
    "latitude": 38.45418222,
    "longitude": -101.7462828
  },
  {
    "iata": "5M0",
    "name": "Rountree",
    "city": "Hartselle",
    "state": "AL",
    "country": "USA",
    "latitude": 34.40823444,
    "longitude": -86.93295056
  },
  {
    "iata": "5M1",
    "name": "De Witt Municipal",
    "city": "De Witt",
    "state": "AR",
    "country": "USA",
    "latitude": 34.2626,
    "longitude": -91.30984194
  },
  {
    "iata": "5M4",
    "name": "Fordyce Municipal",
    "city": "Fordyce",
    "state": "AR",
    "country": "USA",
    "latitude": 33.84593722,
    "longitude": -92.36542861
  },
  {
    "iata": "5M9",
    "name": "Marion-Crittenden County",
    "city": "Marion",
    "state": "KY",
    "country": "USA",
    "latitude": 37.33616222,
    "longitude": -88.11113611
  },
  {
    "iata": "5N8",
    "name": "Casselton Regional",
    "city": "Casselton",
    "state": "ND",
    "country": "USA",
    "latitude": 46.85469528,
    "longitude": -97.20870028
  },
  {
    "iata": "5ND6",
    "name": "Hillsboro Municipal",
    "city": "Hillsboro",
    "state": "ND",
    "country": "USA",
    "latitude": 47.35940778,
    "longitude": -97.06041639
  },
  {
    "iata": "5NI",
    "name": "Nikolai",
    "city": "Nikolai",
    "state": "AK",
    "country": "USA",
    "latitude": 63.0174475,
    "longitude": -154.3639608
  },
  {
    "iata": "5NK",
    "name": "Naknek",
    "city": "Naknek",
    "state": "AK",
    "country": "USA",
    "latitude": 58.73288056,
    "longitude": -157.0199197
  },
  {
    "iata": "5NN",
    "name": "Nondalton",
    "city": "Nondalton",
    "state": "AK",
    "country": "USA",
    "latitude": 59.97904306,
    "longitude": -154.8396944
  },
  {
    "iata": "5R3",
    "name": "Rusty Allen",
    "city": "Lago Vista",
    "state": "TX",
    "country": "USA",
    "latitude": 30.498585,
    "longitude": -97.96947222
  },
  {
    "iata": "5R4",
    "name": "Foley Municipal",
    "city": "Foley",
    "state": "AL",
    "country": "USA",
    "latitude": 30.42769722,
    "longitude": -87.70082
  },
  {
    "iata": "5R5",
    "name": "Wharton Municipal",
    "city": "Wharton",
    "state": "TX",
    "country": "USA",
    "latitude": 29.25427778,
    "longitude": -96.15438889
  },
  {
    "iata": "5R8",
    "name": "De Quincy Industrial Airpark",
    "city": "De Quincy",
    "state": "LA",
    "country": "USA",
    "latitude": 30.44117222,
    "longitude": -93.47349722
  },
  {
    "iata": "5S8",
    "name": "St. Michael",
    "city": "St. Michael",
    "state": "AK",
    "country": "USA",
    "latitude": 63.49005056,
    "longitude": -162.1103692
  },
  {
    "iata": "5T5",
    "name": "Hillsboro Municipal",
    "city": "Hillsboro",
    "state": "TX",
    "country": "USA",
    "latitude": 32.08348611,
    "longitude": -97.09722722
  },
  {
    "iata": "5T6",
    "name": "Dona Ana County  At Santa Teresa",
    "city": "Santa Teresa",
    "state": "NM",
    "country": "USA",
    "latitude": 31.88098556,
    "longitude": -106.7048131
  },
  {
    "iata": "5T9",
    "name": "Maverick County Meml Intl",
    "city": "Eagle Pass",
    "state": "TX",
    "country": "USA",
    "latitude": 28.85719361,
    "longitude": -100.5122997
  },
  {
    "iata": "5TE",
    "name": "Tetlin",
    "city": "Tetlin",
    "state": "AK",
    "country": "USA",
    "latitude": 63.13382361,
    "longitude": -142.5219339
  },
  {
    "iata": "5U3",
    "name": "Ennis - Big Sky",
    "city": "Ennis",
    "state": "MT",
    "country": "USA",
    "latitude": 45.27175833,
    "longitude": -111.6486389
  },
  {
    "iata": "5U8",
    "name": "Geraldine",
    "city": "Geraldine",
    "state": "MT",
    "country": "USA",
    "latitude": 47.59664,
    "longitude": -110.2660367
  },
  {
    "iata": "5V5",
    "name": "Shiprock Airstrip",
    "city": "Shiprock",
    "state": "NM",
    "country": "USA",
    "latitude": 36.6977775,
    "longitude": -108.7011986
  },
  {
    "iata": "5V8",
    "name": "Kadoka Municipal",
    "city": "Kadoka",
    "state": "SD",
    "country": "USA",
    "latitude": 43.83332611,
    "longitude": -101.4970881
  },
  {
    "iata": "5W8",
    "name": "Siler City Municipal",
    "city": "Siler City",
    "state": "NC",
    "country": "USA",
    "latitude": 35.7029175,
    "longitude": -79.50529972
  },
  {
    "iata": "5Z1",
    "name": "Juneau Harbor",
    "city": "Juneau",
    "state": "AK",
    "country": "USA",
    "latitude": 58.29888889,
    "longitude": -134.4077778
  },
  {
    "iata": "5Z5",
    "name": "Kantishna",
    "city": "Kantishna",
    "state": "AK",
    "country": "USA",
    "latitude": 63.54171472,
    "longitude": -150.9939547
  },
  {
    "iata": "60F",
    "name": "Seymour Municipal",
    "city": "Seymour",
    "state": "TX",
    "country": "USA",
    "latitude": 33.64870417,
    "longitude": -99.26063056
  },
  {
    "iata": "60J",
    "name": "Ocean Isle",
    "city": "Ocean Isle Beach",
    "state": "NC",
    "country": "USA",
    "latitude": 33.90850556,
    "longitude": -78.43667222
  },
  {
    "iata": "61A",
    "name": "Camden Municipal",
    "city": "Camden",
    "state": "AL",
    "country": "USA",
    "latitude": 31.97987056,
    "longitude": -87.33888056
  },